{"type": "FeatureCollection", "features": [{"type": "Feature", "geometry": {"type": "Point", "coordinates": [-82.64123, 39.048825]}, "properties": {"name": "13-0181---05", "address": "MID CITY CLEANERS, 1 BROADWAY STREET, JACKSON, Ohio, 45640.0", "zip": "45640.0", "city": "JACKSON", "state": "6.0", "county": "41322.8659722222"}}, {"type": "Feature", "geometry": {"type": "Point", "coordinates": [-82.64123, 39.048825]}, "properties": {"name": "13-0181---05", "address": "MID CITY CLEANERS, 1 BROADWAY STREET, JACKSON, Ohio, 45640.0", "zip": "45640.0", "city": "JACKSON", "state": "6.0", "county": "41322.8659722222"}}, {"type": "Feature", "geometry": {"type": "Point", "coordinates": [-82.532938, 39.123405]}, "properties": {"name": "13-020072", "address": "PENN STATION APTS, EAST 2ND ST, WELLSTON, Ohio, 45692.0", "zip": "45692.0", "city": "WELLSTON", "state": "8.0", "county": "41311.70625"}}, {"type": "Feature", "geometry": {"type": "Point", "coordinates": [-82.532938, 39.123405]}, "properties": {"name": "13-020072", "address": "PENN STATION APTS, EAST 2ND ST, WELLSTON, Ohio, 45692.0", "zip": "45692.0", "city": "WELLSTON", "state": "8.0", "county": "41311.70625"}}, {"type": "Feature", "geometry": {"type": "Point", "coordinates": [-82.532938, 39.123405]}, "properties": {"name": "13-020072", "address": "PENN STATION APTS, EAST 2ND ST, WELLSTON, Ohio, 45692.0", "zip": "45692.0", "city": "WELLSTON", "state": "8.0", "county": "41311.70625"}}, {"type": "Feature", "geometry": {"type": "Point", "coordinates": [-82.532938, 39.123405]}, "properties": {"name": "13-020090", "address": "nan, 11TH ST @ RAILROAD TRACKS, WELLSTON, Ohio, 45692.0", "zip": "45692.0", "city": "WELLSTON", "state": "8.0", "county": "41318.8083333333"}}, {"type": "Feature", "geometry": {"type": "Point", "coordinates": [-82.532938, 39.123405]}, "properties": {"name": "13-020090", "address": "nan, 11TH ST @ RAILROAD TRACKS, WELLSTON, Ohio, 45692.0", "zip": "45692.0", "city": "WELLSTON", "state": "8.0", "county": "41318.8083333333"}}, {"type": "Feature", "geometry": {"type": "Point", "coordinates": [-82.532938, 39.123405]}, "properties": {"name": "13-020090", "address": "nan, 11TH ST @ RAILROAD TRACKS, WELLSTON, Ohio, 45692.0", "zip": "45692.0", "city": "WELLSTON", "state": "8.0", "county": "41318.8083333333"}}, {"type": "Feature", "geometry": {"type": "Point", "coordinates": [-82.532938, 39.123405]}, "properties": {"name": "13-020090", "address": "nan, 11TH ST @ RAILROAD TRACKS, WELLSTON, Ohio, 45692.0", "zip": "45692.0", "city": "WELLSTON", "state": "8.0", "county": "41318.8083333333"}}, {"type": "Feature", "geometry": {"type": "Point", "coordinates": [-82.539545, 39.11133]}, "properties": {"name": "13-020105", "address": "nan, 132 W 13TH ST, WELLSTON, Ohio, 45692.0", "zip": "45692.0", "city": "WELLSTON", "state": "8.0", "county": "41324.9236111111"}}, {"type": "Feature", "geometry": {"type": "Point", "coordinates": [-82.539545, 39.11133]}, "properties": {"name": "13-020105", "address": "nan, 132 W 13TH ST, WELLSTON, Ohio, 45692.0", "zip": "45692.0", "city": "WELLSTON", "state": "8.0", "county": "41324.9236111111"}}, {"type": "Feature", "geometry": {"type": "Point", "coordinates": [-82.539545, 39.11133]}, "properties": {"name": "13-020105", "address": "nan, 132 W 13TH ST, WELLSTON, Ohio, 45692.0", "zip": "45692.0", "city": "WELLSTON", "state": "8.0", "county": "41324.9236111111"}}, {"type": "Feature", "geometry": {"type": "Point", "coordinates": [-82.539545, 39.11133]}, "properties": {"name": "13-020105", "address": "nan, 132 W 13TH ST, WELLSTON, Ohio, 45692.0", "zip": "45692.0", "city": "WELLSTON", "state": "8.0", "county": "41324.9236111111"}}, {"type": "Feature", "geometry": {"type": "Point", "coordinates": [-82.539545, 39.11133]}, "properties": {"name": "13-020105", "address": "nan, 132 W 13TH ST, WELLSTON, Ohio, 45692.0", "zip": "45692.0", "city": "WELLSTON", "state": "8.0", "county": "41324.9236111111"}}, {"type": "Feature", "geometry": {"type": "Point", "coordinates": [-82.539545, 39.11133]}, "properties": {"name": "13-020105", "address": "nan, 132 W 13TH ST, WELLSTON, Ohio, 45692.0", "zip": "45692.0", "city": "WELLSTON", "state": "8.0", "county": "41324.9236111111"}}, {"type": "Feature", "geometry": {"type": "Point", "coordinates": [-82.539545, 39.11133]}, "properties": {"name": "13-020105", "address": "nan, 132 W 13TH ST, WELLSTON, Ohio, 45692.0", "zip": "45692.0", "city": "WELLSTON", "state": "8.0", "county": "41324.9236111111"}}, {"type": "Feature", "geometry": {"type": "Point", "coordinates": [-82.539545, 39.11133]}, "properties": {"name": "13-020105", "address": "nan, 132 W 13TH ST, WELLSTON, Ohio, 45692.0", "zip": "45692.0", "city": "WELLSTON", "state": "8.0", "county": "41324.9236111111"}}, {"type": "Feature", "geometry": {"type": "Point", "coordinates": [-82.539545, 39.11133]}, "properties": {"name": "13-020105", "address": "nan, 132 W 13TH ST, WELLSTON, Ohio, 45692.0", "zip": "45692.0", "city": "WELLSTON", "state": "8.0", "county": "41324.9236111111"}}, {"type": "Feature", "geometry": {"type": "Point", "coordinates": [-82.539545, 39.11133]}, "properties": {"name": "13-020105", "address": "nan, 132 W 13TH ST, WELLSTON, Ohio, 45692.0", "zip": "45692.0", "city": "WELLSTON", "state": "8.0", "county": "41324.9236111111"}}, {"type": "Feature", "geometry": {"type": "Point", "coordinates": [-82.539545, 39.11133]}, "properties": {"name": "13-020105", "address": "nan, 132 W 13TH ST, WELLSTON, Ohio, 45692.0", "zip": "45692.0", "city": "WELLSTON", "state": "8.0", "county": "41324.9236111111"}}, {"type": "Feature", "geometry": {"type": "Point", "coordinates": [-82.539545, 39.11133]}, "properties": {"name": "13-020105", "address": "nan, 132 W 13TH ST, WELLSTON, Ohio, 45692.0", "zip": "45692.0", "city": "WELLSTON", "state": "8.0", "county": "41324.9236111111"}}, {"type": "Feature", "geometry": {"type": "Point", "coordinates": [-82.539545, 39.11133]}, "properties": {"name": "13-020105", "address": "nan, 132 W 13TH ST, WELLSTON, Ohio, 45692.0", "zip": "45692.0", "city": "WELLSTON", "state": "8.0", "county": "41324.9236111111"}}, {"type": "Feature", "geometry": {"type": "Point", "coordinates": [-82.539545, 39.11133]}, "properties": {"name": "13-020105", "address": "nan, 132 W 13TH ST, WELLSTON, Ohio, 45692.0", "zip": "45692.0", "city": "WELLSTON", "state": "8.0", "county": "41324.9236111111"}}, {"type": "Feature", "geometry": {"type": "Point", "coordinates": [-82.539545, 39.11133]}, "properties": {"name": "13-020105", "address": "nan, 132 W 13TH ST, WELLSTON, Ohio, 45692.0", "zip": "45692.0", "city": "WELLSTON", "state": "8.0", "county": "41324.9236111111"}}, {"type": "Feature", "geometry": {"type": "Point", "coordinates": [-82.539545, 39.11133]}, "properties": {"name": "13-020105", "address": "nan, 132 W 13TH ST, WELLSTON, Ohio, 45692.0", "zip": "45692.0", "city": "WELLSTON", "state": "8.0", "county": "41324.9236111111"}}, {"type": "Feature", "geometry": {"type": "Point", "coordinates": [-82.539545, 39.11133]}, "properties": {"name": "13-020105", "address": "nan, 132 W 13TH ST, WELLSTON, Ohio, 45692.0", "zip": "45692.0", "city": "WELLSTON", "state": "8.0", "county": "41324.9236111111"}}, {"type": "Feature", "geometry": {"type": "Point", "coordinates": [-82.539545, 39.11133]}, "properties": {"name": "13-020105", "address": "nan, 132 W 13TH ST, WELLSTON, Ohio, 45692.0", "zip": "45692.0", "city": "WELLSTON", "state": "8.0", "county": "41324.9236111111"}}, {"type": "Feature", "geometry": {"type": "Point", "coordinates": [-82.539545, 39.11133]}, "properties": {"name": "13-020105", "address": "nan, 132 W 13TH ST, WELLSTON, Ohio, 45692.0", "zip": "45692.0", "city": "WELLSTON", "state": "8.0", "county": "41324.9236111111"}}, {"type": "Feature", "geometry": {"type": "Point", "coordinates": [-82.539545, 39.11133]}, "properties": {"name": "13-020105", "address": "nan, 132 W 13TH ST, WELLSTON, Ohio, 45692.0", "zip": "45692.0", "city": "WELLSTON", "state": "8.0", "county": "41324.9236111111"}}, {"type": "Feature", "geometry": {"type": "Point", "coordinates": [-82.537743, 39.11881]}, "properties": {"name": "13-020110", "address": "WELLS MANOR, 45 460 S MICHIGAN AVE, WELLSTON, Ohio, 45692.0", "zip": "45692.0", "city": "WELLSTON", "state": "8.0", "county": "41329.8930555556"}}, {"type": "Feature", "geometry": {"type": "Point", "coordinates": [-82.537743, 39.11881]}, "properties": {"name": "13-020110", "address": "WELLS MANOR, 45 460 S MICHIGAN AVE, WELLSTON, Ohio, 45692.0", "zip": "45692.0", "city": "WELLSTON", "state": "8.0", "county": "41329.8930555556"}}, {"type": "Feature", "geometry": {"type": "Point", "coordinates": [-82.537743, 39.11881]}, "properties": {"name": "13-020110", "address": "WELLS MANOR, 45 460 S MICHIGAN AVE, WELLSTON, Ohio, 45692.0", "zip": "45692.0", "city": "WELLSTON", "state": "8.0", "county": "41329.8930555556"}}, {"type": "Feature", "geometry": {"type": "Point", "coordinates": [-82.537743, 39.11881]}, "properties": {"name": "13-020110", "address": "WELLS MANOR, 45 460 S MICHIGAN AVE, WELLSTON, Ohio, 45692.0", "zip": "45692.0", "city": "WELLSTON", "state": "8.0", "county": "41329.8930555556"}}, {"type": "Feature", "geometry": {"type": "Point", "coordinates": [-82.537743, 39.11881]}, "properties": {"name": "13-020110", "address": "WELLS MANOR, 45 460 S MICHIGAN AVE, WELLSTON, Ohio, 45692.0", "zip": "45692.0", "city": "WELLSTON", "state": "8.0", "county": "41329.8930555556"}}, {"type": "Feature", "geometry": {"type": "Point", "coordinates": [-82.537743, 39.11881]}, "properties": {"name": "13-020110", "address": "WELLS MANOR, 45 460 S MICHIGAN AVE, WELLSTON, Ohio, 45692.0", "zip": "45692.0", "city": "WELLSTON", "state": "8.0", "county": "41329.8930555556"}}, {"type": "Feature", "geometry": {"type": "Point", "coordinates": [-82.537743, 39.11881]}, "properties": {"name": "13-020110", "address": "WELLS MANOR, 45 460 S MICHIGAN AVE, WELLSTON, Ohio, 45692.0", "zip": "45692.0", "city": "WELLSTON", "state": "8.0", "county": "41329.8930555556"}}, {"type": "Feature", "geometry": {"type": "Point", "coordinates": [-82.537743, 39.11881]}, "properties": {"name": "13-020110", "address": "WELLS MANOR, 45 460 S MICHIGAN AVE, WELLSTON, Ohio, 45692.0", "zip": "45692.0", "city": "WELLSTON", "state": "8.0", "county": "41329.8930555556"}}, {"type": "Feature", "geometry": {"type": "Point", "coordinates": [-82.537743, 39.11881]}, "properties": {"name": "13-020116", "address": "WELLS MANOR, 51 460 S MICHIGAN AVE, WELLSTON, Ohio, 45692.0", "zip": "45692.0", "city": "WELLSTON", "state": "8.0", "county": "41329.8930555556"}}, {"type": "Feature", "geometry": {"type": "Point", "coordinates": [-82.537743, 39.11881]}, "properties": {"name": "13-020116", "address": "WELLS MANOR, 51 460 S MICHIGAN AVE, WELLSTON, Ohio, 45692.0", "zip": "45692.0", "city": "WELLSTON", "state": "8.0", "county": "41329.8930555556"}}, {"type": "Feature", "geometry": {"type": "Point", "coordinates": [-82.537743, 39.11881]}, "properties": {"name": "13-020116", "address": "WELLS MANOR, 51 460 S MICHIGAN AVE, WELLSTON, Ohio, 45692.0", "zip": "45692.0", "city": "WELLSTON", "state": "8.0", "county": "41329.8930555556"}}, {"type": "Feature", "geometry": {"type": "Point", "coordinates": [-82.537743, 39.11881]}, "properties": {"name": "13-020116", "address": "WELLS MANOR, 51 460 S MICHIGAN AVE, WELLSTON, Ohio, 45692.0", "zip": "45692.0", "city": "WELLSTON", "state": "8.0", "county": "41329.8930555556"}}, {"type": "Feature", "geometry": {"type": "Point", "coordinates": [-82.537743, 39.11881]}, "properties": {"name": "13-020116", "address": "WELLS MANOR, 51 460 S MICHIGAN AVE, WELLSTON, Ohio, 45692.0", "zip": "45692.0", "city": "WELLSTON", "state": "8.0", "county": "41329.8930555556"}}, {"type": "Feature", "geometry": {"type": "Point", "coordinates": [-82.537743, 39.11881]}, "properties": {"name": "13-020116", "address": "WELLS MANOR, 51 460 S MICHIGAN AVE, WELLSTON, Ohio, 45692.0", "zip": "45692.0", "city": "WELLSTON", "state": "8.0", "county": "41329.8930555556"}}, {"type": "Feature", "geometry": {"type": "Point", "coordinates": [-82.537743, 39.11881]}, "properties": {"name": "13-020116", "address": "WELLS MANOR, 51 460 S MICHIGAN AVE, WELLSTON, Ohio, 45692.0", "zip": "45692.0", "city": "WELLSTON", "state": "8.0", "county": "41329.8930555556"}}, {"type": "Feature", "geometry": {"type": "Point", "coordinates": [-82.537743, 39.11881]}, "properties": {"name": "13-020116", "address": "WELLS MANOR, 51 460 S MICHIGAN AVE, WELLSTON, Ohio, 45692.0", "zip": "45692.0", "city": "WELLSTON", "state": "8.0", "county": "41329.8930555556"}}, {"type": "Feature", "geometry": {"type": "Point", "coordinates": [-82.537743, 39.11881]}, "properties": {"name": "13-020116", "address": "WELLS MANOR, 51 460 S MICHIGAN AVE, WELLSTON, Ohio, 45692.0", "zip": "45692.0", "city": "WELLSTON", "state": "8.0", "county": "41329.8930555556"}}, {"type": "Feature", "geometry": {"type": "Point", "coordinates": [-82.537743, 39.11881]}, "properties": {"name": "13-020116", "address": "WELLS MANOR, 51 460 S MICHIGAN AVE, WELLSTON, Ohio, 45692.0", "zip": "45692.0", "city": "WELLSTON", "state": "8.0", "county": "41329.8930555556"}}, {"type": "Feature", "geometry": {"type": "Point", "coordinates": [-82.537743, 39.11881]}, "properties": {"name": "13-020116", "address": "WELLS MANOR, 51 460 S MICHIGAN AVE, WELLSTON, Ohio, 45692.0", "zip": "45692.0", "city": "WELLSTON", "state": "8.0", "county": "41329.8930555556"}}, {"type": "Feature", "geometry": {"type": "Point", "coordinates": [-82.537743, 39.11881]}, "properties": {"name": "13-020116", "address": "WELLS MANOR, 51 460 S MICHIGAN AVE, WELLSTON, Ohio, 45692.0", "zip": "45692.0", "city": "WELLSTON", "state": "8.0", "county": "41329.8930555556"}}, {"type": "Feature", "geometry": {"type": "Point", "coordinates": [-82.532938, 39.123405]}, "properties": {"name": "13-030119", "address": "nan, SR 327 @ CORPORATION LIMITS, WELLSTON, Ohio, 45692.0", "zip": "45692.0", "city": "WELLSTON", "state": "6.0", "county": "41334.925"}}, {"type": "Feature", "geometry": {"type": "Point", "coordinates": [-82.636554, 39.052017]}, "properties": {"name": "13-0410---00", "address": "EDDIE JONES PARK, HARDING AVENUE, JACKSON, Ohio, 45640.0", "zip": "45640.0", "city": "JACKSON", "state": "1.0", "county": "41384.7743055556"}}, {"type": "Feature", "geometry": {"type": "Point", "coordinates": [-82.636554, 39.052017]}, "properties": {"name": "13-0410---00", "address": "EDDIE JONES PARK, HARDING AVENUE, JACKSON, Ohio, 45640.0", "zip": "45640.0", "city": "JACKSON", "state": "1.0", "county": "41384.7743055556"}}, {"type": "Feature", "geometry": {"type": "Point", "coordinates": [-82.636554, 39.052017]}, "properties": {"name": "13-0410---00", "address": "EDDIE JONES PARK, HARDING AVENUE, JACKSON, Ohio, 45640.0", "zip": "45640.0", "city": "JACKSON", "state": "1.0", "county": "41384.7743055556"}}, {"type": "Feature", "geometry": {"type": "Point", "coordinates": [-82.636554, 39.052017]}, "properties": {"name": "13-0410---00", "address": "EDDIE JONES PARK, HARDING AVENUE, JACKSON, Ohio, 45640.0", "zip": "45640.0", "city": "JACKSON", "state": "1.0", "county": "41384.7743055556"}}, {"type": "Feature", "geometry": {"type": "Point", "coordinates": [-82.636554, 39.052017]}, "properties": {"name": "13-0420---00", "address": "nan, WATER ST, JACKSON, Ohio, 45640.0", "zip": "45640.0", "city": "JACKSON", "state": "6.0", "county": "41386.8909722222"}}, {"type": "Feature", "geometry": {"type": "Point", "coordinates": [-82.636554, 39.052017]}, "properties": {"name": "13-0420---00", "address": "nan, WATER ST, JACKSON, Ohio, 45640.0", "zip": "45640.0", "city": "JACKSON", "state": "6.0", "county": "41386.8909722222"}}, {"type": "Feature", "geometry": {"type": "Point", "coordinates": [-82.532938, 39.123405]}, "properties": {"name": "13-050271", "address": "THE STORE ON BROADWAY & PENN, S. PENNSYLVANIA AVE., WELLSTON, Ohio, 45692.0", "zip": "45692.0", "city": "WELLSTON", "state": "6.0", "county": "41397.7847222222"}}, {"type": "Feature", "geometry": {"type": "Point", "coordinates": [-82.532938, 39.123405]}, "properties": {"name": "13-050271", "address": "THE STORE ON BROADWAY & PENN, S. PENNSYLVANIA AVE., WELLSTON, Ohio, 45692.0", "zip": "45692.0", "city": "WELLSTON", "state": "6.0", "county": "41397.7847222222"}}, {"type": "Feature", "geometry": {"type": "Point", "coordinates": [-82.532938, 39.123405]}, "properties": {"name": "13-050271", "address": "THE STORE ON BROADWAY & PENN, S. PENNSYLVANIA AVE., WELLSTON, Ohio, 45692.0", "zip": "45692.0", "city": "WELLSTON", "state": "6.0", "county": "41397.7847222222"}}, {"type": "Feature", "geometry": {"type": "Point", "coordinates": [-82.532938, 39.123405]}, "properties": {"name": "13-050335", "address": "nan, PENN AND D ST, WELLSTON, Ohio, 45692.0", "zip": "45692.0", "city": "WELLSTON", "state": "8.0", "county": "41416.9569444444"}}, {"type": "Feature", "geometry": {"type": "Point", "coordinates": [-82.533265, 39.127335]}, "properties": {"name": "13-050341", "address": "nan, 101 E D ST, WELLSTON, Ohio, 45692.0", "zip": "45692.0", "city": "WELLSTON", "state": "1.0", "county": "41417.8895833333"}}, {"type": "Feature", "geometry": {"type": "Point", "coordinates": [-82.533265, 39.127335]}, "properties": {"name": "13-050341", "address": "nan, 101 E D ST, WELLSTON, Ohio, 45692.0", "zip": "45692.0", "city": "WELLSTON", "state": "1.0", "county": "41417.8895833333"}}, {"type": "Feature", "geometry": {"type": "Point", "coordinates": [-82.532938, 39.123405]}, "properties": {"name": "13-050351", "address": "nan, 2ND & MICH AVE, WELLSTON, Ohio, 45692.0", "zip": "45692.0", "city": "WELLSTON", "state": "6.0", "county": "41420.98125"}}, {"type": "Feature", "geometry": {"type": "Point", "coordinates": [-82.532938, 39.123405]}, "properties": {"name": "13-050351", "address": "nan, 2ND & MICH AVE, WELLSTON, Ohio, 45692.0", "zip": "45692.0", "city": "WELLSTON", "state": "6.0", "county": "41420.98125"}}, {"type": "Feature", "geometry": {"type": "Point", "coordinates": [-82.532938, 39.123405]}, "properties": {"name": "13-050351", "address": "nan, 2ND & MICH AVE, WELLSTON, Ohio, 45692.0", "zip": "45692.0", "city": "WELLSTON", "state": "6.0", "county": "41420.98125"}}, {"type": "Feature", "geometry": {"type": "Point", "coordinates": [-82.532938, 39.123405]}, "properties": {"name": "13-050351", "address": "nan, 2ND & MICH AVE, WELLSTON, Ohio, 45692.0", "zip": "45692.0", "city": "WELLSTON", "state": "6.0", "county": "41420.98125"}}, {"type": "Feature", "geometry": {"type": "Point", "coordinates": [-82.532938, 39.123405]}, "properties": {"name": "13-080603", "address": "nan, PENNSYLVANIA AVE. @ SR 349, WELLSTON, Ohio, 45692.0", "zip": "45692.0", "city": "WELLSTON", "state": "1.0", "county": "41514.8659722222"}}, {"type": "Feature", "geometry": {"type": "Point", "coordinates": [-82.7749, 39.12747]}, "properties": {"name": "13-1015---04", "address": "nan, 101 LEE AVE., JACKSON, Ohio, 45640.0", "zip": "45640.0", "city": "JACKSON", "state": "8.0", "county": "41520.9027777778"}}, {"type": "Feature", "geometry": {"type": "Point", "coordinates": [-82.56655, 38.89683]}, "properties": {"name": "13-1032---05", "address": "KROGER, 530 EAST MAIN STREET, JACKSON, Ohio, 45640.0", "zip": "45640.0", "city": "JACKSON", "state": "6.0", "county": "41525.84375"}}, {"type": "Feature", "geometry": {"type": "Point", "coordinates": [-82.56655, 38.89683]}, "properties": {"name": "13-1032---05", "address": "KROGER, 530 EAST MAIN STREET, JACKSON, Ohio, 45640.0", "zip": "45640.0", "city": "JACKSON", "state": "6.0", "county": "41525.84375"}}, {"type": "Feature", "geometry": {"type": "Point", "coordinates": [-82.636554, 39.052017]}, "properties": {"name": "13-1119---00", "address": "nan, 119 1/2 MORTON STREET, JACKSON, Ohio, 45640.0", "zip": "45640.0", "city": "JACKSON", "state": "1.0", "county": "41545.8888888889"}}, {"type": "Feature", "geometry": {"type": "Point", "coordinates": [-82.636554, 39.052017]}, "properties": {"name": "13-1189---05", "address": "FILLING STATION, 214 BRIDGE ST., JACKSON, Ohio, 45640.0", "zip": "45640.0", "city": "JACKSON", "state": "1.0", "county": "41563.8854166667"}}, {"type": "Feature", "geometry": {"type": "Point", "coordinates": [-82.636554, 39.052017]}, "properties": {"name": "13-1189---05", "address": "FILLING STATION, 214 BRIDGE ST., JACKSON, Ohio, 45640.0", "zip": "45640.0", "city": "JACKSON", "state": "1.0", "county": "41563.8854166667"}}, {"type": "Feature", "geometry": {"type": "Point", "coordinates": [-82.636554, 39.052017]}, "properties": {"name": "13-1189---05", "address": "FILLING STATION, 214 BRIDGE ST., JACKSON, Ohio, 45640.0", "zip": "45640.0", "city": "JACKSON", "state": "1.0", "county": "41563.8854166667"}}, {"type": "Feature", "geometry": {"type": "Point", "coordinates": [-82.636554, 39.052017]}, "properties": {"name": "13-1189---05", "address": "FILLING STATION, 214 BRIDGE ST., JACKSON, Ohio, 45640.0", "zip": "45640.0", "city": "JACKSON", "state": "1.0", "county": "41563.8854166667"}}, {"type": "Feature", "geometry": {"type": "Point", "coordinates": [-82.57089, 38.89561]}, "properties": {"name": "13-1200---00", "address": "MARIE LAVEAUS BAR, 201 E. MAIN STREET, JACKSON, Ohio, 45640.0", "zip": "45640.0", "city": "JACKSON", "state": "6.0", "county": "41566.9618055556"}}, {"type": "Feature", "geometry": {"type": "Point", "coordinates": [-82.57089, 38.89561]}, "properties": {"name": "13-1200---00", "address": "MARIE LAVEAUS BAR, 201 E. MAIN STREET, JACKSON, Ohio, 45640.0", "zip": "45640.0", "city": "JACKSON", "state": "6.0", "county": "41566.9618055556"}}, {"type": "Feature", "geometry": {"type": "Point", "coordinates": [-82.53765, 39.12181]}, "properties": {"name": "13-120848", "address": "FRUTH PHARMACY, 120 W. 2ND ST., WELLSTON, Ohio, 45692.0", "zip": "45692.0", "city": "WELLSTON", "state": "6.0", "county": "41609.5534722222"}}, {"type": "Feature", "geometry": {"type": "Point", "coordinates": [-82.53765, 39.12181]}, "properties": {"name": "13-120848", "address": "FRUTH PHARMACY, 120 W. 2ND ST., WELLSTON, Ohio, 45692.0", "zip": "45692.0", "city": "WELLSTON", "state": "6.0", "county": "41609.5534722222"}}, {"type": "Feature", "geometry": {"type": "Point", "coordinates": [-82.53765, 39.12181]}, "properties": {"name": "13-120848", "address": "FRUTH PHARMACY, 120 W. 2ND ST., WELLSTON, Ohio, 45692.0", "zip": "45692.0", "city": "WELLSTON", "state": "6.0", "county": "41609.5534722222"}}, {"type": "Feature", "geometry": {"type": "Point", "coordinates": [-82.62, 39.02]}, "properties": {"name": "13-1311---00", "address": "nan, SOUTH ST. & PEARL ST., JACKSON, Ohio, 45640.0", "zip": "45640.0", "city": "JACKSON", "state": "4.0", "county": "41593.7416666667"}}, {"type": "Feature", "geometry": {"type": "Point", "coordinates": [-82.62, 39.02]}, "properties": {"name": "13-1311---00", "address": "nan, SOUTH ST. & PEARL ST., JACKSON, Ohio, 45640.0", "zip": "45640.0", "city": "JACKSON", "state": "4.0", "county": "41593.7416666667"}}, {"type": "Feature", "geometry": {"type": "Point", "coordinates": [-82.636554, 39.052017]}, "properties": {"name": "13-1351---00", "address": "nan, HARPER, JACKSON, Ohio, 45640.0", "zip": "45640.0", "city": "JACKSON", "state": "5.0", "county": "41600.0"}}, {"type": "Feature", "geometry": {"type": "Point", "coordinates": [-82.62259, 39.03156]}, "properties": {"name": "13-1436---05", "address": "WALMART, 100 WALMART DR, JACKSON, Ohio, 45640.0", "zip": "45640.0", "city": "JACKSON", "state": "5.0", "county": "41626.8159722222"}}, {"type": "Feature", "geometry": {"type": "Point", "coordinates": [-82.62259, 39.03156]}, "properties": {"name": "13-1436---05", "address": "WALMART, 100 WALMART DR, JACKSON, Ohio, 45640.0", "zip": "45640.0", "city": "JACKSON", "state": "5.0", "county": "41626.8159722222"}}, {"type": "Feature", "geometry": {"type": "Point", "coordinates": [-82.62259, 39.03156]}, "properties": {"name": "13-1436---05", "address": "WALMART, 100 WALMART DR, JACKSON, Ohio, 45640.0", "zip": "45640.0", "city": "JACKSON", "state": "5.0", "county": "41626.8159722222"}}, {"type": "Feature", "geometry": {"type": "Point", "coordinates": [-82.62259, 39.03156]}, "properties": {"name": "13-1436---05", "address": "WALMART, 100 WALMART DR, JACKSON, Ohio, 45640.0", "zip": "45640.0", "city": "JACKSON", "state": "5.0", "county": "41626.8159722222"}}, {"type": "Feature", "geometry": {"type": "Point", "coordinates": [1.57676643468505, 42.5486542501806]}, "properties": {"name": "13-2375---JM", "address": "nan, BEAVER PIKE AND VALLEY CHAPEL RD, RD        JACKSON, Ohio, 45640.0", "zip": "45640.0", "city": "RD        JACKSON", "state": "1.0", "county": "41583.8104166667"}}, {"type": "Feature", "geometry": {"type": "Point", "coordinates": [-82.7114488167578, 40.4174201146]}, "properties": {"name": "13-2420---JM", "address": "nan, SR 93 AND DICKENS RD, OAK HILL, Ohio, 45656.0", "zip": "45656.0", "city": "OAK HILL", "state": "6.0", "county": "41586.8402777778"}}, {"type": "Feature", "geometry": {"type": "Point", "coordinates": [-82.7114488167578, 40.4174201146]}, "properties": {"name": "13-2420---JM", "address": "nan, SR 93 AND DICKENS RD, OAK HILL, Ohio, 45656.0", "zip": "45656.0", "city": "OAK HILL", "state": "6.0", "county": "41586.8402777778"}}, {"type": "Feature", "geometry": {"type": "Point", "coordinates": [-82.63372, 39.030495]}, "properties": {"name": "13-2424---ST", "address": "JACKSON COUNTY JAIL, 350 PORTSMONTH STREET, JACKSON, Ohio, nan", "zip": "nan", "city": "JACKSON", "state": "2.0", "county": "41587.0368055556"}}, {"type": "Feature", "geometry": {"type": "Point", "coordinates": [-82.636554, 39.052017]}, "properties": {"name": "14-0224---04", "address": "nan, nan, JACKSON, Ohio, 45640.0", "zip": "45640.0", "city": "JACKSON", "state": "8.0", "county": "41706.3958333333"}}, {"type": "Feature", "geometry": {"type": "Point", "coordinates": [-82.532938, 39.123405]}, "properties": {"name": "14-10670--10", "address": "nan, MCDONALDS PARKING LOT, WELLSTON, Ohio, 45692.0", "zip": "45692.0", "city": "WELLSTON", "state": "6.0", "county": "41937.6708333333"}}, {"type": "Feature", "geometry": {"type": "Point", "coordinates": [-82.532938, 39.123405]}, "properties": {"name": "14-10758--10", "address": "nan, WEST 4TH STREET & ARKANSAS AVE, WELLSTON, Ohio, 45692.0", "zip": "45692.0", "city": "WELLSTON", "state": "1.0", "county": "41940.4673611111"}}, {"type": "Feature", "geometry": {"type": "Point", "coordinates": [-82.532938, 39.123405]}, "properties": {"name": "14-10758--10", "address": "nan, WEST 4TH STREET & ARKANSAS AVE, WELLSTON, Ohio, 45692.0", "zip": "45692.0", "city": "WELLSTON", "state": "1.0", "county": "41940.4673611111"}}, {"type": "Feature", "geometry": {"type": "Point", "coordinates": [-82.532938, 39.123405]}, "properties": {"name": "14-10758--10", "address": "nan, WEST 4TH STREET & ARKANSAS AVE, WELLSTON, Ohio, 45692.0", "zip": "45692.0", "city": "WELLSTON", "state": "1.0", "county": "41940.4673611111"}}, {"type": "Feature", "geometry": {"type": "Point", "coordinates": [-82.554962, 38.895536]}, "properties": {"name": "14-1522---04", "address": "WALGREENS, 521 E. MAIN ST, JACKSON, Ohio, 45640.0", "zip": "45640.0", "city": "JACKSON", "state": "4.0", "county": "41996.7604166667"}}, {"type": "Feature", "geometry": {"type": "Point", "coordinates": [-82.554962, 38.895536]}, "properties": {"name": "14-1522---04", "address": "WALGREENS, 521 E. MAIN ST, JACKSON, Ohio, 45640.0", "zip": "45640.0", "city": "JACKSON", "state": "4.0", "county": "41996.7604166667"}}, {"type": "Feature", "geometry": {"type": "Point", "coordinates": [-82.53861, 39.12309]}, "properties": {"name": "14-2039---02", "address": "nan, 21 S. MICHIGAN AVE., WELLSTON, Ohio, 45692.0", "zip": "45692.0", "city": "WELLSTON", "state": "6.0", "county": "41695.7715277778"}}, {"type": "Feature", "geometry": {"type": "Point", "coordinates": [-82.53861, 39.12309]}, "properties": {"name": "14-2039---02", "address": "nan, 21 S. MICHIGAN AVE., WELLSTON, Ohio, 45692.0", "zip": "45692.0", "city": "WELLSTON", "state": "6.0", "county": "41695.7715277778"}}, {"type": "Feature", "geometry": {"type": "Point", "coordinates": [-82.532938, 39.123405]}, "properties": {"name": "14-2316---JS", "address": "nan, 1256 SANDS HILL ROAD, WELLSTON, Ohio, 45692.0", "zip": "45692.0", "city": "WELLSTON", "state": "1.0", "county": "41793.6458333333"}}, {"type": "Feature", "geometry": {"type": "Point", "coordinates": [-82.636554, 39.052017]}, "properties": {"name": "14-3930---RL", "address": "JACKSON HIGH SCHOOL, 500 VAUGHAN ST, JACKSON, Ohio, 45640.0", "zip": "45640.0", "city": "JACKSON", "state": "8.0", "county": "41891.4791666667"}}, {"type": "Feature", "geometry": {"type": "Point", "coordinates": [-88.891652, 35.667456]}, "properties": {"name": "14-4221---JM", "address": "nan, US 35 AND 93 OVER PASS, JACKSON, Ohio, 45640.0", "zip": "45640.0", "city": "JACKSON", "state": "1.0", "county": "41916.7951388889"}}, {"type": "Feature", "geometry": {"type": "Point", "coordinates": [-88.891652, 35.667456]}, "properties": {"name": "14-4221---JM", "address": "nan, US 35 AND 93 OVER PASS, JACKSON, Ohio, 45640.0", "zip": "45640.0", "city": "JACKSON", "state": "1.0", "county": "41916.7951388889"}}, {"type": "Feature", "geometry": {"type": "Point", "coordinates": [-88.891652, 35.667456]}, "properties": {"name": "14-4221---JM", "address": "nan, US 35 AND 93 OVER PASS, JACKSON, Ohio, 45640.0", "zip": "45640.0", "city": "JACKSON", "state": "1.0", "county": "41916.7951388889"}}, {"type": "Feature", "geometry": {"type": "Point", "coordinates": [-82.57603, 39.07479]}, "properties": {"name": "14-4510---RC", "address": "FOUR WINDS COMMUNITY, 215 SETH AVE, JACKSON, Ohio, 45640.0", "zip": "45640.0", "city": "JACKSON", "state": "2.0", "county": "41921.4409722222"}}, {"type": "Feature", "geometry": {"type": "Point", "coordinates": [-82.57603, 39.07479]}, "properties": {"name": "14-4510---RC", "address": "FOUR WINDS COMMUNITY, 215 SETH AVE, JACKSON, Ohio, 45640.0", "zip": "45640.0", "city": "JACKSON", "state": "2.0", "county": "41921.4409722222"}}, {"type": "Feature", "geometry": {"type": "Point", "coordinates": [-82.5785, 39.05364]}, "properties": {"name": "14-4513---JM", "address": "nan, 2530 PATTONSVILLE RD, JACKSON, Ohio, 45640.0", "zip": "45640.0", "city": "JACKSON", "state": "6.0", "county": "41935.6777777778"}}, {"type": "Feature", "geometry": {"type": "Point", "coordinates": [-82.5785, 39.05364]}, "properties": {"name": "14-4513---JM", "address": "nan, 2530 PATTONSVILLE RD, JACKSON, Ohio, 45640.0", "zip": "45640.0", "city": "JACKSON", "state": "6.0", "county": "41935.6777777778"}}, {"type": "Feature", "geometry": {"type": "Point", "coordinates": [-82.5785, 39.05364]}, "properties": {"name": "14-4513---JM", "address": "nan, 2530 PATTONSVILLE RD, JACKSON, Ohio, 45640.0", "zip": "45640.0", "city": "JACKSON", "state": "6.0", "county": "41935.6777777778"}}, {"type": "Feature", "geometry": {"type": "Point", "coordinates": [-82.5785, 39.05364]}, "properties": {"name": "14-4513---JM", "address": "nan, 2530 PATTONSVILLE RD, JACKSON, Ohio, 45640.0", "zip": "45640.0", "city": "JACKSON", "state": "6.0", "county": "41935.6777777778"}}, {"type": "Feature", "geometry": {"type": "Point", "coordinates": [-82.5785, 39.05364]}, "properties": {"name": "14-4513---JM", "address": "nan, 2530 PATTONSVILLE RD, JACKSON, Ohio, 45640.0", "zip": "45640.0", "city": "JACKSON", "state": "6.0", "county": "41935.6777777778"}}, {"type": "Feature", "geometry": {"type": "Point", "coordinates": [-82.573495, 38.893965]}, "properties": {"name": "14-4594---JM", "address": "nan, FRONT ST, OAK HILL, Ohio, 45656.0", "zip": "45656.0", "city": "OAK HILL", "state": "1.0", "county": "41941.9583333333"}}, {"type": "Feature", "geometry": {"type": "Point", "coordinates": [-82.573495, 38.893965]}, "properties": {"name": "14-4594---JM", "address": "nan, FRONT ST, OAK HILL, Ohio, 45656.0", "zip": "45656.0", "city": "OAK HILL", "state": "1.0", "county": "41941.9583333333"}}, {"type": "Feature", "geometry": {"type": "Point", "coordinates": [-82.532938, 39.123405]}, "properties": {"name": "14-4879---05", "address": "nan, S. PENNSYLVANIA AND 7TH ST., WELLSTON, Ohio, 45692.0", "zip": "45692.0", "city": "WELLSTON", "state": "6.0", "county": "41770.8236111111"}}, {"type": "Feature", "geometry": {"type": "Point", "coordinates": [-83.952719, 40.556161]}, "properties": {"name": "14-6024---06", "address": "nan, S NEW HAMPSHIRE @ SEWER PLANT, WELLSTON, Ohio, 45692.0", "zip": "45692.0", "city": "WELLSTON", "state": "8.0", "county": "41800.5451388889"}}, {"type": "Feature", "geometry": {"type": "Point", "coordinates": [-83.952719, 40.556161]}, "properties": {"name": "14-6024---06", "address": "nan, S NEW HAMPSHIRE @ SEWER PLANT, WELLSTON, Ohio, 45692.0", "zip": "45692.0", "city": "WELLSTON", "state": "8.0", "county": "41800.5451388889"}}, {"type": "Feature", "geometry": {"type": "Point", "coordinates": [-83.952719, 40.556161]}, "properties": {"name": "14-6024---06", "address": "nan, S NEW HAMPSHIRE @ SEWER PLANT, WELLSTON, Ohio, 45692.0", "zip": "45692.0", "city": "WELLSTON", "state": "8.0", "county": "41800.5451388889"}}, {"type": "Feature", "geometry": {"type": "Point", "coordinates": [-83.952719, 40.556161]}, "properties": {"name": "14-6024---06", "address": "nan, S NEW HAMPSHIRE @ SEWER PLANT, WELLSTON, Ohio, 45692.0", "zip": "45692.0", "city": "WELLSTON", "state": "8.0", "county": "41800.5451388889"}}, {"type": "Feature", "geometry": {"type": "Point", "coordinates": [-83.952719, 40.556161]}, "properties": {"name": "14-6024---06", "address": "nan, S NEW HAMPSHIRE @ SEWER PLANT, WELLSTON, Ohio, 45692.0", "zip": "45692.0", "city": "WELLSTON", "state": "8.0", "county": "41800.5451388889"}}, {"type": "Feature", "geometry": {"type": "Point", "coordinates": [-83.952719, 40.556161]}, "properties": {"name": "14-6024---06", "address": "nan, S NEW HAMPSHIRE @ SEWER PLANT, WELLSTON, Ohio, 45692.0", "zip": "45692.0", "city": "WELLSTON", "state": "8.0", "county": "41800.5451388889"}}, {"type": "Feature", "geometry": {"type": "Point", "coordinates": [-83.952719, 40.556161]}, "properties": {"name": "14-6024---06", "address": "nan, S NEW HAMPSHIRE @ SEWER PLANT, WELLSTON, Ohio, 45692.0", "zip": "45692.0", "city": "WELLSTON", "state": "8.0", "county": "41800.5451388889"}}, {"type": "Feature", "geometry": {"type": "Point", "coordinates": [-83.952719, 40.556161]}, "properties": {"name": "14-6024---06", "address": "nan, S NEW HAMPSHIRE @ SEWER PLANT, WELLSTON, Ohio, 45692.0", "zip": "45692.0", "city": "WELLSTON", "state": "8.0", "county": "41800.5451388889"}}, {"type": "Feature", "geometry": {"type": "Point", "coordinates": [-83.952719, 40.556161]}, "properties": {"name": "14-6024---06", "address": "nan, S NEW HAMPSHIRE @ SEWER PLANT, WELLSTON, Ohio, 45692.0", "zip": "45692.0", "city": "WELLSTON", "state": "8.0", "county": "41800.5451388889"}}, {"type": "Feature", "geometry": {"type": "Point", "coordinates": [-83.952719, 40.556161]}, "properties": {"name": "14-6024---06", "address": "nan, S NEW HAMPSHIRE @ SEWER PLANT, WELLSTON, Ohio, 45692.0", "zip": "45692.0", "city": "WELLSTON", "state": "8.0", "county": "41800.5451388889"}}, {"type": "Feature", "geometry": {"type": "Point", "coordinates": [-83.952719, 40.556161]}, "properties": {"name": "14-6024---06", "address": "nan, S NEW HAMPSHIRE @ SEWER PLANT, WELLSTON, Ohio, 45692.0", "zip": "45692.0", "city": "WELLSTON", "state": "8.0", "county": "41800.5451388889"}}, {"type": "Feature", "geometry": {"type": "Point", "coordinates": [-83.952719, 40.556161]}, "properties": {"name": "14-6024---06", "address": "nan, S NEW HAMPSHIRE @ SEWER PLANT, WELLSTON, Ohio, 45692.0", "zip": "45692.0", "city": "WELLSTON", "state": "8.0", "county": "41800.5451388889"}}, {"type": "Feature", "geometry": {"type": "Point", "coordinates": [-83.952719, 40.556161]}, "properties": {"name": "14-6024---06", "address": "nan, S NEW HAMPSHIRE @ SEWER PLANT, WELLSTON, Ohio, 45692.0", "zip": "45692.0", "city": "WELLSTON", "state": "8.0", "county": "41800.5451388889"}}, {"type": "Feature", "geometry": {"type": "Point", "coordinates": [-83.952719, 40.556161]}, "properties": {"name": "14-6024---06", "address": "nan, S NEW HAMPSHIRE @ SEWER PLANT, WELLSTON, Ohio, 45692.0", "zip": "45692.0", "city": "WELLSTON", "state": "8.0", "county": "41800.5451388889"}}, {"type": "Feature", "geometry": {"type": "Point", "coordinates": [-83.952719, 40.556161]}, "properties": {"name": "14-6024---06", "address": "nan, S NEW HAMPSHIRE @ SEWER PLANT, WELLSTON, Ohio, 45692.0", "zip": "45692.0", "city": "WELLSTON", "state": "8.0", "county": "41800.5451388889"}}, {"type": "Feature", "geometry": {"type": "Point", "coordinates": [-83.952719, 40.556161]}, "properties": {"name": "14-6024---06", "address": "nan, S NEW HAMPSHIRE @ SEWER PLANT, WELLSTON, Ohio, 45692.0", "zip": "45692.0", "city": "WELLSTON", "state": "8.0", "county": "41800.5451388889"}}, {"type": "Feature", "geometry": {"type": "Point", "coordinates": [-83.952719, 40.556161]}, "properties": {"name": "14-6024---06", "address": "nan, S NEW HAMPSHIRE @ SEWER PLANT, WELLSTON, Ohio, 45692.0", "zip": "45692.0", "city": "WELLSTON", "state": "8.0", "county": "41800.5451388889"}}, {"type": "Feature", "geometry": {"type": "Point", "coordinates": [-83.952719, 40.556161]}, "properties": {"name": "14-6024---06", "address": "nan, S NEW HAMPSHIRE @ SEWER PLANT, WELLSTON, Ohio, 45692.0", "zip": "45692.0", "city": "WELLSTON", "state": "8.0", "county": "41800.5451388889"}}, {"type": "Feature", "geometry": {"type": "Point", "coordinates": [-83.952719, 40.556161]}, "properties": {"name": "14-6024---06", "address": "nan, S NEW HAMPSHIRE @ SEWER PLANT, WELLSTON, Ohio, 45692.0", "zip": "45692.0", "city": "WELLSTON", "state": "8.0", "county": "41800.5451388889"}}, {"type": "Feature", "geometry": {"type": "Point", "coordinates": [-83.952719, 40.556161]}, "properties": {"name": "14-6024---06", "address": "nan, S NEW HAMPSHIRE @ SEWER PLANT, WELLSTON, Ohio, 45692.0", "zip": "45692.0", "city": "WELLSTON", "state": "8.0", "county": "41800.5451388889"}}, {"type": "Feature", "geometry": {"type": "Point", "coordinates": [-83.952719, 40.556161]}, "properties": {"name": "14-6024---06", "address": "nan, S NEW HAMPSHIRE @ SEWER PLANT, WELLSTON, Ohio, 45692.0", "zip": "45692.0", "city": "WELLSTON", "state": "8.0", "county": "41800.5451388889"}}, {"type": "Feature", "geometry": {"type": "Point", "coordinates": [-74.9786, 43.32243]}, "properties": {"name": "14-7798---08", "address": "nan, 14TH  & NEW YORK AVE, WELLSTON, Ohio, 45692.0", "zip": "45692.0", "city": "WELLSTON", "state": "6.0", "county": "41855.5118055556"}}, {"type": "Feature", "geometry": {"type": "Point", "coordinates": [-82.532938, 39.123405]}, "properties": {"name": "15-010021", "address": "nan, OHIO AVE. AND 2ND ST., WELLSTON, Ohio, 45692.0", "zip": "45692.0", "city": "WELLSTON", "state": "6.0", "county": "42015.7388888889"}}, {"type": "Feature", "geometry": {"type": "Point", "coordinates": [-82.532938, 39.123405]}, "properties": {"name": "15-010021", "address": "nan, OHIO AVE. AND 2ND ST., WELLSTON, Ohio, 45692.0", "zip": "45692.0", "city": "WELLSTON", "state": "6.0", "county": "42015.7388888889"}}, {"type": "Feature", "geometry": {"type": "Point", "coordinates": [-82.532938, 39.123405]}, "properties": {"name": "15-010021", "address": "nan, OHIO AVE. AND 2ND ST., WELLSTON, Ohio, 45692.0", "zip": "45692.0", "city": "WELLSTON", "state": "6.0", "county": "42015.7388888889"}}, {"type": "Feature", "geometry": {"type": "Point", "coordinates": [-82.532938, 39.123405]}, "properties": {"name": "15-010021", "address": "nan, OHIO AVE. AND 2ND ST., WELLSTON, Ohio, 45692.0", "zip": "45692.0", "city": "WELLSTON", "state": "6.0", "county": "42015.7388888889"}}, {"type": "Feature", "geometry": {"type": "Point", "coordinates": [-82.532938, 39.123405]}, "properties": {"name": "15-010021", "address": "nan, OHIO AVE. AND 2ND ST., WELLSTON, Ohio, 45692.0", "zip": "45692.0", "city": "WELLSTON", "state": "6.0", "county": "42015.7388888889"}}, {"type": "Feature", "geometry": {"type": "Point", "coordinates": [-82.532938, 39.123405]}, "properties": {"name": "15-010021", "address": "nan, OHIO AVE. AND 2ND ST., WELLSTON, Ohio, 45692.0", "zip": "45692.0", "city": "WELLSTON", "state": "6.0", "county": "42015.7388888889"}}, {"type": "Feature", "geometry": {"type": "Point", "coordinates": [-82.636554, 39.052017]}, "properties": {"name": "15-0158---00", "address": "WAL-MART, 100 WALMART DR., JACKSON, Ohio, 45640.0", "zip": "45640.0", "city": "JACKSON", "state": "6.0", "county": "42048.6548611111"}}, {"type": "Feature", "geometry": {"type": "Point", "coordinates": [-82.636554, 39.052017]}, "properties": {"name": "15-0158---00", "address": "WAL-MART, 100 WALMART DR., JACKSON, Ohio, 45640.0", "zip": "45640.0", "city": "JACKSON", "state": "6.0", "county": "42048.6548611111"}}, {"type": "Feature", "geometry": {"type": "Point", "coordinates": [-82.636554, 39.052017]}, "properties": {"name": "15-0158---00", "address": "WAL-MART, 100 WALMART DR., JACKSON, Ohio, 45640.0", "zip": "45640.0", "city": "JACKSON", "state": "6.0", "county": "42048.6548611111"}}, {"type": "Feature", "geometry": {"type": "Point", "coordinates": [-82.636554, 39.052017]}, "properties": {"name": "15-0158---00", "address": "WAL-MART, 100 WALMART DR., JACKSON, Ohio, 45640.0", "zip": "45640.0", "city": "JACKSON", "state": "6.0", "county": "42048.6548611111"}}, {"type": "Feature", "geometry": {"type": "Point", "coordinates": [-81.91454, 39.36359]}, "properties": {"name": "15-0343---JM", "address": "nan, US 35 AND CO RD 84, JACKSON, Ohio, 45640.0", "zip": "45640.0", "city": "JACKSON", "state": "6.0", "county": "42031.7715277778"}}, {"type": "Feature", "geometry": {"type": "Point", "coordinates": [-82.453252, 38.891898]}, "properties": {"name": "15-0349---05", "address": "RADIO SHACK, 14985 E. MAIN ST., JACKSON, Ohio, 45640.0", "zip": "45640.0", "city": "JACKSON", "state": "6.0", "county": "42097.7666666667"}}, {"type": "Feature", "geometry": {"type": "Point", "coordinates": [15.16667, 47.25]}, "properties": {"name": "15-0356---JM", "address": "nan, 35 AT BROADWAY ST, JACKSON, Ohio, nan", "zip": "nan", "city": "JACKSON", "state": "1.0", "county": "42032.8333333333"}}, {"type": "Feature", "geometry": {"type": "Point", "coordinates": [-82.636554, 39.052017]}, "properties": {"name": "15-0386---05", "address": "nan, STATE STREET & MAPLE AVENUE, JACKSON, Ohio, 45640.0", "zip": "45640.0", "city": "JACKSON", "state": "8.0", "county": "42104.9895833333"}}, {"type": "Feature", "geometry": {"type": "Point", "coordinates": [-82.636554, 39.052017]}, "properties": {"name": "15-0386---05", "address": "nan, STATE STREET & MAPLE AVENUE, JACKSON, Ohio, 45640.0", "zip": "45640.0", "city": "JACKSON", "state": "8.0", "county": "42104.9895833333"}}, {"type": "Feature", "geometry": {"type": "Point", "coordinates": [-82.636554, 39.052017]}, "properties": {"name": "15-0386---05", "address": "nan, STATE STREET & MAPLE AVENUE, JACKSON, Ohio, 45640.0", "zip": "45640.0", "city": "JACKSON", "state": "8.0", "county": "42104.9895833333"}}, {"type": "Feature", "geometry": {"type": "Point", "coordinates": [-82.636554, 39.052017]}, "properties": {"name": "15-0507---RL", "address": "JACKSON HIGH SCHOOL, 500 VAUGHN ST., JACKSON, Ohio, 45640.0", "zip": "45640.0", "city": "JACKSON", "state": "3.0", "county": "42045.1145833333"}}, {"type": "Feature", "geometry": {"type": "Point", "coordinates": [-82.636554, 39.052017]}, "properties": {"name": "15-0507---RL", "address": "JACKSON HIGH SCHOOL, 500 VAUGHN ST., JACKSON, Ohio, 45640.0", "zip": "45640.0", "city": "JACKSON", "state": "3.0", "county": "42045.1145833333"}}, {"type": "Feature", "geometry": {"type": "Point", "coordinates": [-82.636554, 39.052017]}, "properties": {"name": "15-0507---RL", "address": "JACKSON HIGH SCHOOL, 500 VAUGHN ST., JACKSON, Ohio, 45640.0", "zip": "45640.0", "city": "JACKSON", "state": "3.0", "county": "42045.1145833333"}}, {"type": "Feature", "geometry": {"type": "Point", "coordinates": [-83.378533, 40.484224]}, "properties": {"name": "15-0764---00", "address": "SPEEDWAY, 449 E. MAIN ST., JACKSON, Ohio, 45640.0", "zip": "45640.0", "city": "JACKSON", "state": "6.0", "county": "42192.1319444444"}}, {"type": "Feature", "geometry": {"type": "Point", "coordinates": [-83.378533, 40.484224]}, "properties": {"name": "15-0764---00", "address": "SPEEDWAY, 449 E. MAIN ST., JACKSON, Ohio, 45640.0", "zip": "45640.0", "city": "JACKSON", "state": "6.0", "county": "42192.1319444444"}}, {"type": "Feature", "geometry": {"type": "Point", "coordinates": [-83.378533, 40.484224]}, "properties": {"name": "15-0764---00", "address": "SPEEDWAY, 449 E. MAIN ST., JACKSON, Ohio, 45640.0", "zip": "45640.0", "city": "JACKSON", "state": "6.0", "county": "42192.1319444444"}}, {"type": "Feature", "geometry": {"type": "Point", "coordinates": [-83.378533, 40.484224]}, "properties": {"name": "15-0764---00", "address": "SPEEDWAY, 449 E. MAIN ST., JACKSON, Ohio, 45640.0", "zip": "45640.0", "city": "JACKSON", "state": "6.0", "county": "42192.1319444444"}}, {"type": "Feature", "geometry": {"type": "Point", "coordinates": [-82.636554, 39.052017]}, "properties": {"name": "15-0775---05", "address": "nan, N. HIGH ST, JACKSON, Ohio, 45640.0", "zip": "45640.0", "city": "JACKSON", "state": "8.0", "county": "42194.8347222222"}}, {"type": "Feature", "geometry": {"type": "Point", "coordinates": [-82.636554, 39.052017]}, "properties": {"name": "15-0775---05", "address": "nan, N. HIGH ST, JACKSON, Ohio, 45640.0", "zip": "45640.0", "city": "JACKSON", "state": "8.0", "county": "42194.8347222222"}}, {"type": "Feature", "geometry": {"type": "Point", "coordinates": [-82.636554, 39.052017]}, "properties": {"name": "15-0775---05", "address": "nan, N. HIGH ST, JACKSON, Ohio, 45640.0", "zip": "45640.0", "city": "JACKSON", "state": "8.0", "county": "42194.8347222222"}}, {"type": "Feature", "geometry": {"type": "Point", "coordinates": [-82.636554, 39.052017]}, "properties": {"name": "15-0775---05", "address": "nan, N. HIGH ST, JACKSON, Ohio, 45640.0", "zip": "45640.0", "city": "JACKSON", "state": "8.0", "county": "42194.8347222222"}}, {"type": "Feature", "geometry": {"type": "Point", "coordinates": [-82.62, 39.02]}, "properties": {"name": "15-0904---05", "address": "nan, WATER ST. AND HARDING AVE,, JACKSON, Ohio, 45640.0", "zip": "45640.0", "city": "JACKSON", "state": "8.0", "county": "42215.8708333333"}}, {"type": "Feature", "geometry": {"type": "Point", "coordinates": [-82.62, 39.02]}, "properties": {"name": "15-0904---05", "address": "nan, WATER ST. AND HARDING AVE,, JACKSON, Ohio, 45640.0", "zip": "45640.0", "city": "JACKSON", "state": "8.0", "county": "42215.8708333333"}}, {"type": "Feature", "geometry": {"type": "Point", "coordinates": [-82.63851, 39.05045]}, "properties": {"name": "15-0917---05", "address": "H&K SOUND, 134 BROADWAY ST., JACKSON, Ohio, 45640.0", "zip": "45640.0", "city": "JACKSON", "state": "6.0", "county": "42217.9444444444"}}, {"type": "Feature", "geometry": {"type": "Point", "coordinates": [-82.7114488167578, 40.4174201146]}, "properties": {"name": "15-1010---05", "address": "nan, CORPORATION ST. AND CARR ST., JACKSON, Ohio, 45640.0", "zip": "45640.0", "city": "JACKSON", "state": "2.0", "county": "42238.9868055556"}}, {"type": "Feature", "geometry": {"type": "Point", "coordinates": [-82.7114488167578, 40.4174201146]}, "properties": {"name": "15-1010---05", "address": "nan, CORPORATION ST. AND CARR ST., JACKSON, Ohio, 45640.0", "zip": "45640.0", "city": "JACKSON", "state": "2.0", "county": "42238.9868055556"}}, {"type": "Feature", "geometry": {"type": "Point", "coordinates": [-82.7114488167578, 40.4174201146]}, "properties": {"name": "15-1010---05", "address": "nan, CORPORATION ST. AND CARR ST., JACKSON, Ohio, 45640.0", "zip": "45640.0", "city": "JACKSON", "state": "2.0", "county": "42238.9868055556"}}, {"type": "Feature", "geometry": {"type": "Point", "coordinates": [-82.7114488167578, 40.4174201146]}, "properties": {"name": "15-1010---05", "address": "nan, CORPORATION ST. AND CARR ST., JACKSON, Ohio, 45640.0", "zip": "45640.0", "city": "JACKSON", "state": "2.0", "county": "42238.9868055556"}}, {"type": "Feature", "geometry": {"type": "Point", "coordinates": [-82.62259, 39.03156]}, "properties": {"name": "15-1245---00", "address": "WALMART, 100 WALMART DR., JACKSON, Ohio, 45640.0", "zip": "45640.0", "city": "JACKSON", "state": "8.0", "county": "42286.6319444444"}}, {"type": "Feature", "geometry": {"type": "Point", "coordinates": [-82.62259, 39.03156]}, "properties": {"name": "15-1245---00", "address": "WALMART, 100 WALMART DR., JACKSON, Ohio, 45640.0", "zip": "45640.0", "city": "JACKSON", "state": "8.0", "county": "42286.6319444444"}}, {"type": "Feature", "geometry": {"type": "Point", "coordinates": [-82.636554, 39.052017]}, "properties": {"name": "15-1470---JM", "address": "nan, 35 AT 93, JACKSON, Ohio, 45640.0", "zip": "45640.0", "city": "JACKSON", "state": "1.0", "county": "42123.7805555556"}}, {"type": "Feature", "geometry": {"type": "Point", "coordinates": [-82.636554, 39.052017]}, "properties": {"name": "15-1470---JM", "address": "nan, 35 AT 93, JACKSON, Ohio, 45640.0", "zip": "45640.0", "city": "JACKSON", "state": "1.0", "county": "42123.7805555556"}}, {"type": "Feature", "geometry": {"type": "Point", "coordinates": [-82.636554, 39.052017]}, "properties": {"name": "15-1470---JM", "address": "nan, 35 AT 93, JACKSON, Ohio, 45640.0", "zip": "45640.0", "city": "JACKSON", "state": "1.0", "county": "42123.7805555556"}}, {"type": "Feature", "geometry": {"type": "Point", "coordinates": [-82.636554, 39.052017]}, "properties": {"name": "15-1470---JM", "address": "nan, 35 AT 93, JACKSON, Ohio, 45640.0", "zip": "45640.0", "city": "JACKSON", "state": "1.0", "county": "42123.7805555556"}}, {"type": "Feature", "geometry": {"type": "Point", "coordinates": [-82.62259, 39.03156]}, "properties": {"name": "15-1487---05", "address": "WALMART, 100 WALMART DR., JACKSON, Ohio, 45640.0", "zip": "45640.0", "city": "JACKSON", "state": "8.0", "county": "42349.7326388889"}}, {"type": "Feature", "geometry": {"type": "Point", "coordinates": [-82.62259, 39.03156]}, "properties": {"name": "15-1487---05", "address": "WALMART, 100 WALMART DR., JACKSON, Ohio, 45640.0", "zip": "45640.0", "city": "JACKSON", "state": "8.0", "county": "42349.7326388889"}}, {"type": "Feature", "geometry": {"type": "Point", "coordinates": [-82.62259, 39.03156]}, "properties": {"name": "15-1487---05", "address": "WALMART, 100 WALMART DR., JACKSON, Ohio, 45640.0", "zip": "45640.0", "city": "JACKSON", "state": "8.0", "county": "42349.7326388889"}}, {"type": "Feature", "geometry": {"type": "Point", "coordinates": [-82.636554, 39.052017]}, "properties": {"name": "15-1491---05", "address": "nan, WOOD AVE., JACKSON, Ohio, 45640.0", "zip": "45640.0", "city": "JACKSON", "state": "8.0", "county": "42350.8548611111"}}, {"type": "Feature", "geometry": {"type": "Point", "coordinates": [-82.636554, 39.052017]}, "properties": {"name": "15-1491---05", "address": "nan, WOOD AVE., JACKSON, Ohio, 45640.0", "zip": "45640.0", "city": "JACKSON", "state": "8.0", "county": "42350.8548611111"}}, {"type": "Feature", "geometry": {"type": "Point", "coordinates": [-82.62259, 39.03156]}, "properties": {"name": "15-1514---05", "address": "WALMART, 100 WALMART DR., JACKSONS, Ohio, 45640.0", "zip": "45640.0", "city": "JACKSONS", "state": "8.0", "county": "42356.8548611111"}}, {"type": "Feature", "geometry": {"type": "Point", "coordinates": [-82.62259, 39.03156]}, "properties": {"name": "15-1514---05", "address": "WALMART, 100 WALMART DR., JACKSONS, Ohio, 45640.0", "zip": "45640.0", "city": "JACKSONS", "state": "8.0", "county": "42356.8548611111"}}, {"type": "Feature", "geometry": {"type": "Point", "coordinates": [-82.62259, 39.03156]}, "properties": {"name": "15-1514---05", "address": "WALMART, 100 WALMART DR., JACKSONS, Ohio, 45640.0", "zip": "45640.0", "city": "JACKSONS", "state": "8.0", "county": "42356.8548611111"}}, {"type": "Feature", "geometry": {"type": "Point", "coordinates": [-82.62259, 39.03156]}, "properties": {"name": "15-1514---05", "address": "WALMART, 100 WALMART DR., JACKSONS, Ohio, 45640.0", "zip": "45640.0", "city": "JACKSONS", "state": "8.0", "county": "42356.8548611111"}}, {"type": "Feature", "geometry": {"type": "Point", "coordinates": [-82.62259, 39.03156]}, "properties": {"name": "15-1514---05", "address": "WALMART, 100 WALMART DR., JACKSONS, Ohio, 45640.0", "zip": "45640.0", "city": "JACKSONS", "state": "8.0", "county": "42356.8548611111"}}, {"type": "Feature", "geometry": {"type": "Point", "coordinates": [-82.62259, 39.03156]}, "properties": {"name": "15-1514---05", "address": "WALMART, 100 WALMART DR., JACKSONS, Ohio, 45640.0", "zip": "45640.0", "city": "JACKSONS", "state": "8.0", "county": "42356.8548611111"}}, {"type": "Feature", "geometry": {"type": "Point", "coordinates": [-82.62259, 39.03156]}, "properties": {"name": "15-1514---05", "address": "WALMART, 100 WALMART DR., JACKSONS, Ohio, 45640.0", "zip": "45640.0", "city": "JACKSONS", "state": "8.0", "county": "42356.8548611111"}}, {"type": "Feature", "geometry": {"type": "Point", "coordinates": [-82.62259, 39.03156]}, "properties": {"name": "15-1514---05", "address": "WALMART, 100 WALMART DR., JACKSONS, Ohio, 45640.0", "zip": "45640.0", "city": "JACKSONS", "state": "8.0", "county": "42356.8548611111"}}, {"type": "Feature", "geometry": {"type": "Point", "coordinates": [-82.62259, 39.03156]}, "properties": {"name": "15-1514---05", "address": "WALMART, 100 WALMART DR., JACKSONS, Ohio, 45640.0", "zip": "45640.0", "city": "JACKSONS", "state": "8.0", "county": "42356.8548611111"}}, {"type": "Feature", "geometry": {"type": "Point", "coordinates": [-82.62259, 39.03156]}, "properties": {"name": "15-1514---05", "address": "WALMART, 100 WALMART DR., JACKSONS, Ohio, 45640.0", "zip": "45640.0", "city": "JACKSONS", "state": "8.0", "county": "42356.8548611111"}}, {"type": "Feature", "geometry": {"type": "Point", "coordinates": [-82.62259, 39.03156]}, "properties": {"name": "15-1514---05", "address": "WALMART, 100 WALMART DR., JACKSONS, Ohio, 45640.0", "zip": "45640.0", "city": "JACKSONS", "state": "8.0", "county": "42356.8548611111"}}, {"type": "Feature", "geometry": {"type": "Point", "coordinates": [-82.62259, 39.03156]}, "properties": {"name": "15-1514---05", "address": "WALMART, 100 WALMART DR., JACKSONS, Ohio, 45640.0", "zip": "45640.0", "city": "JACKSONS", "state": "8.0", "county": "42356.8548611111"}}, {"type": "Feature", "geometry": {"type": "Point", "coordinates": [-82.62259, 39.03156]}, "properties": {"name": "15-1514---05", "address": "WALMART, 100 WALMART DR., JACKSONS, Ohio, 45640.0", "zip": "45640.0", "city": "JACKSONS", "state": "8.0", "county": "42356.8548611111"}}, {"type": "Feature", "geometry": {"type": "Point", "coordinates": [-82.62259, 39.03156]}, "properties": {"name": "15-1514---05", "address": "WALMART, 100 WALMART DR., JACKSONS, Ohio, 45640.0", "zip": "45640.0", "city": "JACKSONS", "state": "8.0", "county": "42356.8548611111"}}, {"type": "Feature", "geometry": {"type": "Point", "coordinates": [-82.62259, 39.03156]}, "properties": {"name": "15-1514---05", "address": "WALMART, 100 WALMART DR., JACKSONS, Ohio, 45640.0", "zip": "45640.0", "city": "JACKSONS", "state": "8.0", "county": "42356.8548611111"}}, {"type": "Feature", "geometry": {"type": "Point", "coordinates": [-82.62259, 39.03156]}, "properties": {"name": "15-1514---05", "address": "WALMART, 100 WALMART DR., JACKSONS, Ohio, 45640.0", "zip": "45640.0", "city": "JACKSONS", "state": "8.0", "county": "42356.8548611111"}}, {"type": "Feature", "geometry": {"type": "Point", "coordinates": [-82.62, 39.02]}, "properties": {"name": "15-1518---05", "address": "nan, ATHENS ST NEAR RONS GARAGE, JACKSON, Ohio, 45640.0", "zip": "45640.0", "city": "JACKSON", "state": "6.0", "county": "42357.8840277778"}}, {"type": "Feature", "geometry": {"type": "Point", "coordinates": [-82.62, 39.02]}, "properties": {"name": "15-1518---05", "address": "nan, ATHENS ST NEAR RONS GARAGE, JACKSON, Ohio, 45640.0", "zip": "45640.0", "city": "JACKSON", "state": "6.0", "county": "42357.8840277778"}}, {"type": "Feature", "geometry": {"type": "Point", "coordinates": [-82.62, 39.02]}, "properties": {"name": "15-1518---05", "address": "nan, ATHENS ST NEAR RONS GARAGE, JACKSON, Ohio, 45640.0", "zip": "45640.0", "city": "JACKSON", "state": "6.0", "county": "42357.8840277778"}}, {"type": "Feature", "geometry": {"type": "Point", "coordinates": [-82.62, 39.02]}, "properties": {"name": "15-1518---05", "address": "nan, ATHENS ST NEAR RONS GARAGE, JACKSON, Ohio, 45640.0", "zip": "45640.0", "city": "JACKSON", "state": "6.0", "county": "42357.8840277778"}}, {"type": "Feature", "geometry": {"type": "Point", "coordinates": [-82.62, 39.02]}, "properties": {"name": "15-1518---05", "address": "nan, ATHENS ST NEAR RONS GARAGE, JACKSON, Ohio, 45640.0", "zip": "45640.0", "city": "JACKSON", "state": "8.0", "county": "42357.8840277778"}}, {"type": "Feature", "geometry": {"type": "Point", "coordinates": [-82.62, 39.02]}, "properties": {"name": "15-1518---05", "address": "nan, ATHENS ST NEAR RONS GARAGE, JACKSON, Ohio, 45640.0", "zip": "45640.0", "city": "JACKSON", "state": "8.0", "county": "42357.8840277778"}}, {"type": "Feature", "geometry": {"type": "Point", "coordinates": [-82.62, 39.02]}, "properties": {"name": "15-1518---05", "address": "nan, ATHENS ST NEAR RONS GARAGE, JACKSON, Ohio, 45640.0", "zip": "45640.0", "city": "JACKSON", "state": "8.0", "county": "42357.8840277778"}}, {"type": "Feature", "geometry": {"type": "Point", "coordinates": [-82.62, 39.02]}, "properties": {"name": "15-1518---05", "address": "nan, ATHENS ST NEAR RONS GARAGE, JACKSON, Ohio, 45640.0", "zip": "45640.0", "city": "JACKSON", "state": "8.0", "county": "42357.8840277778"}}, {"type": "Feature", "geometry": {"type": "Point", "coordinates": [-82.636554, 39.052017]}, "properties": {"name": "15-1542---05", "address": "nan, MAIN STREET, JACKSON, Ohio, 45640.0", "zip": "45640.0", "city": "JACKSON", "state": "8.0", "county": "42364.8388888889"}}, {"type": "Feature", "geometry": {"type": "Point", "coordinates": [-82.636554, 39.052017]}, "properties": {"name": "15-1542---05", "address": "nan, MAIN STREET, JACKSON, Ohio, 45640.0", "zip": "45640.0", "city": "JACKSON", "state": "8.0", "county": "42364.8388888889"}}, {"type": "Feature", "geometry": {"type": "Point", "coordinates": [-82.636554, 39.052017]}, "properties": {"name": "15-2546---RZ", "address": "QUEEN TREATMENT CENTER, 10 LADY AVE, JACKSON, Ohio, 45640.0", "zip": "45640.0", "city": "JACKSON", "state": "2.0", "county": "42202.3763888889"}}, {"type": "Feature", "geometry": {"type": "Point", "coordinates": [-82.7114488167578, 40.4174201146]}, "properties": {"name": "15-3250---JM", "address": "nan, B US HIGHWAY 35 AND COUNTY ROAD 84 EASTB, D 84 EASTBOUNDJACKSON, Ohio, 45640.0", "zip": "45640.0", "city": "D 84 EASTBOUNDJACKSON", "state": "1.0", "county": "42248.925"}}, {"type": "Feature", "geometry": {"type": "Point", "coordinates": [-82.7114488167578, 40.4174201146]}, "properties": {"name": "15-3250---JM", "address": "nan, B US HIGHWAY 35 AND COUNTY ROAD 84 EASTB, D 84 EASTBOUNDJACKSON, Ohio, 45640.0", "zip": "45640.0", "city": "D 84 EASTBOUNDJACKSON", "state": "1.0", "county": "42248.925"}}, {"type": "Feature", "geometry": {"type": "Point", "coordinates": [-82.7114488167578, 40.4174201146]}, "properties": {"name": "15-3250---JM", "address": "nan, B US HIGHWAY 35 AND COUNTY ROAD 84 EASTB, D 84 EASTBOUNDJACKSON, Ohio, 45640.0", "zip": "45640.0", "city": "D 84 EASTBOUNDJACKSON", "state": "1.0", "county": "42248.925"}}, {"type": "Feature", "geometry": {"type": "Point", "coordinates": [-82.7114488167578, 40.4174201146]}, "properties": {"name": "15-3250---JM", "address": "nan, B US HIGHWAY 35 AND COUNTY ROAD 84 EASTB, D 84 EASTBOUNDJACKSON, Ohio, 45640.0", "zip": "45640.0", "city": "D 84 EASTBOUNDJACKSON", "state": "1.0", "county": "42248.925"}}, {"type": "Feature", "geometry": {"type": "Point", "coordinates": [-82.7114488167578, 40.4174201146]}, "properties": {"name": "15-3250---JM", "address": "nan, B US HIGHWAY 35 AND COUNTY ROAD 84 EASTB, D 84 EASTBOUNDJACKSON, Ohio, 45640.0", "zip": "45640.0", "city": "D 84 EASTBOUNDJACKSON", "state": "1.0", "county": "42248.925"}}, {"type": "Feature", "geometry": {"type": "Point", "coordinates": [-82.7114488167578, 40.4174201146]}, "properties": {"name": "15-3250---JM", "address": "nan, B US HIGHWAY 35 AND COUNTY ROAD 84 EASTB, D 84 EASTBOUNDJACKSON, Ohio, 45640.0", "zip": "45640.0", "city": "D 84 EASTBOUNDJACKSON", "state": "1.0", "county": "42248.925"}}, {"type": "Feature", "geometry": {"type": "Point", "coordinates": [-81.91454, 39.36359]}, "properties": {"name": "15-3574---JM", "address": "nan, U.S. 35 AND CO RD 84, JACKSON, Ohio, 45640.0", "zip": "45640.0", "city": "JACKSON", "state": "1.0", "county": "42272.6826388889"}}, {"type": "Feature", "geometry": {"type": "Point", "coordinates": [-81.91454, 39.36359]}, "properties": {"name": "15-3574---JM", "address": "nan, U.S. 35 AND CO RD 84, JACKSON, Ohio, 45640.0", "zip": "45640.0", "city": "JACKSON", "state": "1.0", "county": "42272.6826388889"}}, {"type": "Feature", "geometry": {"type": "Point", "coordinates": [-82.636554, 39.052017]}, "properties": {"name": "15-3598---JM", "address": "nan, US35 EAST OF ST RTE 32, JACKSON, Ohio, 45640.0", "zip": "45640.0", "city": "JACKSON", "state": "1.0", "county": "42273.9034722222"}}, {"type": "Feature", "geometry": {"type": "Point", "coordinates": [-82.636554, 39.052017]}, "properties": {"name": "15-3598---JM", "address": "nan, US35 EAST OF ST RTE 32, JACKSON, Ohio, 45640.0", "zip": "45640.0", "city": "JACKSON", "state": "1.0", "county": "42273.9034722222"}}, {"type": "Feature", "geometry": {"type": "Point", "coordinates": [-82.636554, 39.052017]}, "properties": {"name": "15-3598---JM", "address": "nan, US35 EAST OF ST RTE 32, JACKSON, Ohio, 45640.0", "zip": "45640.0", "city": "JACKSON", "state": "1.0", "county": "42273.9034722222"}}, {"type": "Feature", "geometry": {"type": "Point", "coordinates": [-82.636554, 39.052017]}, "properties": {"name": "15-3598---JM", "address": "nan, US35 EAST OF ST RTE 32, JACKSON, Ohio, 45640.0", "zip": "45640.0", "city": "JACKSON", "state": "1.0", "county": "42273.9034722222"}}, {"type": "Feature", "geometry": {"type": "Point", "coordinates": [-82.636554, 39.052017]}, "properties": {"name": "15-3598---JM", "address": "nan, US35 EAST OF ST RTE 32, JACKSON, Ohio, 45640.0", "zip": "45640.0", "city": "JACKSON", "state": "1.0", "county": "42273.9034722222"}}, {"type": "Feature", "geometry": {"type": "Point", "coordinates": [-82.636554, 39.052017]}, "properties": {"name": "15-3598---JM", "address": "nan, US35 EAST OF ST RTE 32, JACKSON, Ohio, 45640.0", "zip": "45640.0", "city": "JACKSON", "state": "1.0", "county": "42273.9034722222"}}, {"type": "Feature", "geometry": {"type": "Point", "coordinates": [-82.636554, 39.052017]}, "properties": {"name": "15-3858---JM", "address": "nan, US 35 1/2 MILE WEST OF 93, JACKSON, Ohio, 45640.0", "zip": "45640.0", "city": "JACKSON", "state": "1.0", "county": "42292.8680555556"}}, {"type": "Feature", "geometry": {"type": "Point", "coordinates": [-82.636554, 39.052017]}, "properties": {"name": "15-3858---JM", "address": "nan, US 35 1/2 MILE WEST OF 93, JACKSON, Ohio, 45640.0", "zip": "45640.0", "city": "JACKSON", "state": "1.0", "county": "42292.8680555556"}}, {"type": "Feature", "geometry": {"type": "Point", "coordinates": [-82.636554, 39.052017]}, "properties": {"name": "15-3858---JM", "address": "nan, US 35 1/2 MILE WEST OF 93, JACKSON, Ohio, 45640.0", "zip": "45640.0", "city": "JACKSON", "state": "1.0", "county": "42292.8680555556"}}, {"type": "Feature", "geometry": {"type": "Point", "coordinates": [-82.636554, 39.052017]}, "properties": {"name": "15-3858---JM", "address": "nan, US 35 1/2 MILE WEST OF 93, JACKSON, Ohio, 45640.0", "zip": "45640.0", "city": "JACKSON", "state": "1.0", "county": "42292.8680555556"}}, {"type": "Feature", "geometry": {"type": "Point", "coordinates": [-82.636554, 39.052017]}, "properties": {"name": "15-4677---JM", "address": "nan, US HIGHWAY 35E AND COUNTY ROAD 84, 84       JACKSON, Ohio, 45640.0", "zip": "45640.0", "city": "84       JACKSON", "state": "1.0", "county": "42350.6847222222"}}, {"type": "Feature", "geometry": {"type": "Point", "coordinates": [-82.636554, 39.052017]}, "properties": {"name": "15-4677---JM", "address": "nan, US HIGHWAY 35E AND COUNTY ROAD 84, 84       JACKSON, Ohio, 45640.0", "zip": "45640.0", "city": "84       JACKSON", "state": "1.0", "county": "42350.6847222222"}}, {"type": "Feature", "geometry": {"type": "Point", "coordinates": [-82.636554, 39.052017]}, "properties": {"name": "15-4677---JM", "address": "nan, US HIGHWAY 35E AND COUNTY ROAD 84, 84       JACKSON, Ohio, 45640.0", "zip": "45640.0", "city": "84       JACKSON", "state": "1.0", "county": "42350.6847222222"}}, {"type": "Feature", "geometry": {"type": "Point", "coordinates": [-82.636554, 39.052017]}, "properties": {"name": "16-0008---05", "address": "nan, ST RT 93 AT ST RT 32, JACKSON, Ohio, 45640.0", "zip": "45640.0", "city": "JACKSON", "state": "6.0", "county": "42371.85"}}, {"type": "Feature", "geometry": {"type": "Point", "coordinates": [-82.636554, 39.052017]}, "properties": {"name": "16-0008---05", "address": "nan, ST RT 93 AT ST RT 32, JACKSON, Ohio, 45640.0", "zip": "45640.0", "city": "JACKSON", "state": "6.0", "county": "42371.85"}}, {"type": "Feature", "geometry": {"type": "Point", "coordinates": [-82.62598, 39.054405]}, "properties": {"name": "16-0027---03", "address": "MOTOR INN, 112 346 E. BROADWAY ST., JACKSON, Ohio, 45640.0", "zip": "45640.0", "city": "JACKSON", "state": "8.0", "county": "42377.36875"}}, {"type": "Feature", "geometry": {"type": "Point", "coordinates": [-82.62598, 39.054405]}, "properties": {"name": "16-0027---03", "address": "MOTOR INN, 112 346 E. BROADWAY ST., JACKSON, Ohio, 45640.0", "zip": "45640.0", "city": "JACKSON", "state": "8.0", "county": "42377.36875"}}, {"type": "Feature", "geometry": {"type": "Point", "coordinates": [-82.62, 39.02]}, "properties": {"name": "16-0139---05", "address": "nan, PATTSONVILLE RD AT ST RT 35, JACKSON, Ohio, 45640.0", "zip": "45640.0", "city": "JACKSON", "state": "8.0", "county": "42413.8729166667"}}, {"type": "Feature", "geometry": {"type": "Point", "coordinates": [-82.636554, 39.052017]}, "properties": {"name": "16-0150---CR", "address": "nan, US HIGHWAY 35 AND STATE ROUTE 93, 93        JACKSON, Ohio, 45640.0", "zip": "45640.0", "city": "93        JACKSON", "state": "1.0", "county": "42385.8402777778"}}, {"type": "Feature", "geometry": {"type": "Point", "coordinates": [-82.636554, 39.052017]}, "properties": {"name": "16-0150---CR", "address": "nan, US HIGHWAY 35 AND STATE ROUTE 93, 93        JACKSON, Ohio, 45640.0", "zip": "45640.0", "city": "93        JACKSON", "state": "1.0", "county": "42385.8402777778"}}, {"type": "Feature", "geometry": {"type": "Point", "coordinates": [-82.636554, 39.052017]}, "properties": {"name": "16-0239---05", "address": "nan, WATER STR AT JACKSON IMPLEMENT, JACKSON, Ohio, 45640.0", "zip": "45640.0", "city": "JACKSON", "state": "6.0", "county": "42441.8381944444"}}, {"type": "Feature", "geometry": {"type": "Point", "coordinates": [-82.636554, 39.052017]}, "properties": {"name": "16-0239---05", "address": "nan, WATER STR AT JACKSON IMPLEMENT, JACKSON, Ohio, 45640.0", "zip": "45640.0", "city": "JACKSON", "state": "6.0", "county": "42441.8381944444"}}, {"type": "Feature", "geometry": {"type": "Point", "coordinates": [-82.554, 38.99717]}, "properties": {"name": "16-0262---AE", "address": "A&A TRUCK STOP, 80 DIXON RUN ROAD, JACKSON, Ohio, 45640.0", "zip": "45640.0", "city": "JACKSON", "state": "1.0", "county": "42394.8090277778"}}, {"type": "Feature", "geometry": {"type": "Point", "coordinates": [-82.548765, 39.12194]}, "properties": {"name": "16-030089", "address": "nan, 158 HARRISON AVE, WELLSTON, Ohio, 45692.0", "zip": "45692.0", "city": "WELLSTON", "state": "2.0", "county": "42434.625"}}, {"type": "Feature", "geometry": {"type": "Point", "coordinates": [-82.548765, 39.12194]}, "properties": {"name": "16-030089", "address": "nan, 158 HARRISON AVE, WELLSTON, Ohio, 45692.0", "zip": "45692.0", "city": "WELLSTON", "state": "2.0", "county": "42434.625"}}, {"type": "Feature", "geometry": {"type": "Point", "coordinates": [-82.281828, 40.921445]}, "properties": {"name": "16-0475---05", "address": "nan, nan, nan, Ohio, nan", "zip": "nan", "city": "nan", "state": "8.0", "county": "42497.7361111111"}}, {"type": "Feature", "geometry": {"type": "Point", "coordinates": [-82.281828, 40.921445]}, "properties": {"name": "16-0475---05", "address": "nan, nan, nan, Ohio, nan", "zip": "nan", "city": "nan", "state": "8.0", "county": "42497.7361111111"}}, {"type": "Feature", "geometry": {"type": "Point", "coordinates": [-82.62, 39.02]}, "properties": {"name": "16-0476---05", "address": "nan, CHESTNUT NEAR SOUTH ST., JACKSON, Ohio, 45640.0", "zip": "45640.0", "city": "JACKSON", "state": "6.0", "county": "42497.8527777778"}}, {"type": "Feature", "geometry": {"type": "Point", "coordinates": [-82.62, 39.02]}, "properties": {"name": "16-0476---05", "address": "nan, CHESTNUT NEAR SOUTH ST., JACKSON, Ohio, 45640.0", "zip": "45640.0", "city": "JACKSON", "state": "6.0", "county": "42497.8527777778"}}, {"type": "Feature", "geometry": {"type": "Point", "coordinates": [-82.63711, 39.051605]}, "properties": {"name": "16-0481---04", "address": "nan, BROADWAY STR., JACKSON, Ohio, 45640.0", "zip": "45640.0", "city": "JACKSON", "state": "6.0", "county": "42468.8722222222"}}, {"type": "Feature", "geometry": {"type": "Point", "coordinates": [-82.532938, 39.123405]}, "properties": {"name": "16-050223", "address": "nan, 316 SOUTH ARK AVE, WELLSTON, Ohio, 45692.0", "zip": "45692.0", "city": "WELLSTON", "state": "8.0", "county": "42502.5590277778"}}, {"type": "Feature", "geometry": {"type": "Point", "coordinates": [-82.532938, 39.123405]}, "properties": {"name": "16-050223", "address": "nan, 316 SOUTH ARK AVE, WELLSTON, Ohio, 45692.0", "zip": "45692.0", "city": "WELLSTON", "state": "8.0", "county": "42502.5590277778"}}, {"type": "Feature", "geometry": {"type": "Point", "coordinates": [-82.62023, 39.08711]}, "properties": {"name": "16-0536---JM", "address": "nan, US35 JUST PASSED ST RTE 93, JACKSON, Ohio, 45640.0", "zip": "45640.0", "city": "JACKSON", "state": "1.0", "county": "42414.6743055556"}}, {"type": "Feature", "geometry": {"type": "Point", "coordinates": [-82.62023, 39.08711]}, "properties": {"name": "16-0536---JM", "address": "nan, US35 JUST PASSED ST RTE 93, JACKSON, Ohio, 45640.0", "zip": "45640.0", "city": "JACKSON", "state": "1.0", "county": "42414.6743055556"}}, {"type": "Feature", "geometry": {"type": "Point", "coordinates": [-82.62023, 39.08711]}, "properties": {"name": "16-0536---JM", "address": "nan, US35 JUST PASSED ST RTE 93, JACKSON, Ohio, 45640.0", "zip": "45640.0", "city": "JACKSON", "state": "1.0", "county": "42414.6743055556"}}, {"type": "Feature", "geometry": {"type": "Point", "coordinates": [-82.62023, 39.08711]}, "properties": {"name": "16-0536---JM", "address": "nan, US35 JUST PASSED ST RTE 93, JACKSON, Ohio, 45640.0", "zip": "45640.0", "city": "JACKSON", "state": "1.0", "county": "42414.6743055556"}}, {"type": "Feature", "geometry": {"type": "Point", "coordinates": [-82.62, 39.02]}, "properties": {"name": "16-0777---04", "address": "nan, MCCARTYL LN. AT ENTRANCE TO WALMART, LMART     JACKSON, Ohio, 45640.0", "zip": "45640.0", "city": "LMART     JACKSON", "state": "6.0", "county": "42561.8472222222"}}, {"type": "Feature", "geometry": {"type": "Point", "coordinates": [-82.62, 39.02]}, "properties": {"name": "16-0777---04", "address": "nan, MCCARTYL LN. AT ENTRANCE TO WALMART, LMART     JACKSON, Ohio, 45640.0", "zip": "45640.0", "city": "LMART     JACKSON", "state": "6.0", "county": "42561.8472222222"}}, {"type": "Feature", "geometry": {"type": "Point", "coordinates": [-82.62, 39.02]}, "properties": {"name": "16-0777---04", "address": "nan, MCCARTYL LN. AT ENTRANCE TO WALMART, LMART     JACKSON, Ohio, 45640.0", "zip": "45640.0", "city": "LMART     JACKSON", "state": "6.0", "county": "42561.8472222222"}}, {"type": "Feature", "geometry": {"type": "Point", "coordinates": [-82.6422, 39.04935]}, "properties": {"name": "16-0845---00", "address": "nan, 34 PORTSMOUTH STR., JACKSON, Ohio, 45640.0", "zip": "45640.0", "city": "JACKSON", "state": "6.0", "county": "42575.9041666667"}}, {"type": "Feature", "geometry": {"type": "Point", "coordinates": [-82.6422, 39.04935]}, "properties": {"name": "16-0845---00", "address": "nan, 34 PORTSMOUTH STR., JACKSON, Ohio, 45640.0", "zip": "45640.0", "city": "JACKSON", "state": "6.0", "county": "42575.9041666667"}}, {"type": "Feature", "geometry": {"type": "Point", "coordinates": [-82.6422, 39.04935]}, "properties": {"name": "16-0845---00", "address": "nan, 34 PORTSMOUTH STR., JACKSON, Ohio, 45640.0", "zip": "45640.0", "city": "JACKSON", "state": "6.0", "county": "42575.9041666667"}}, {"type": "Feature", "geometry": {"type": "Point", "coordinates": [-82.62001, 39.03147]}, "properties": {"name": "16-0901---JM", "address": "JACKSON COUNTY BMV RESTATEMENT OFFICE, 502 MCCARTY LANE, JACKSON, Ohio, 45640.0", "zip": "45640.0", "city": "JACKSON", "state": "1.0", "county": "42437.5458333333"}}, {"type": "Feature", "geometry": {"type": "Point", "coordinates": [-82.62001, 39.03147]}, "properties": {"name": "16-0901---JM", "address": "JACKSON COUNTY BMV RESTATEMENT OFFICE, 502 MCCARTY LANE, JACKSON, Ohio, 45640.0", "zip": "45640.0", "city": "JACKSON", "state": "1.0", "county": "42437.5458333333"}}, {"type": "Feature", "geometry": {"type": "Point", "coordinates": [-82.52516, 39.105929]}, "properties": {"name": "16-090520", "address": "nan, 3 1439 SOUTH MAINE AVE, WELLSTON, Ohio, 45692.0", "zip": "45692.0", "city": "WELLSTON", "state": "6.0", "county": "42636.7791666667"}}, {"type": "Feature", "geometry": {"type": "Point", "coordinates": [-82.982402, 39.33312]}, "properties": {"name": "16-0990---JM", "address": "nan, U.S. 35 AT CHILLICOTHE PIKE, JACKSON, Ohio, 45640.0", "zip": "45640.0", "city": "JACKSON", "state": "1.0", "county": "42443.8652777778"}}, {"type": "Feature", "geometry": {"type": "Point", "coordinates": [-82.54222, 39.11644]}, "properties": {"name": "16-100551", "address": "nan, 720 W 9TH ST, WELLSTON, Ohio, 45692.0", "zip": "45692.0", "city": "WELLSTON", "state": "8.0", "county": "42654.8270833333"}}, {"type": "Feature", "geometry": {"type": "Point", "coordinates": [-82.54222, 39.11644]}, "properties": {"name": "16-100551", "address": "nan, 720 W 9TH ST, WELLSTON, Ohio, 45692.0", "zip": "45692.0", "city": "WELLSTON", "state": "8.0", "county": "42654.8270833333"}}, {"type": "Feature", "geometry": {"type": "Point", "coordinates": [-82.54222, 39.11644]}, "properties": {"name": "16-100551", "address": "nan, 720 W 9TH ST, WELLSTON, Ohio, 45692.0", "zip": "45692.0", "city": "WELLSTON", "state": "8.0", "county": "42654.8270833333"}}, {"type": "Feature", "geometry": {"type": "Point", "coordinates": [-82.54222, 39.11644]}, "properties": {"name": "16-100551", "address": "nan, 720 W 9TH ST, WELLSTON, Ohio, 45692.0", "zip": "45692.0", "city": "WELLSTON", "state": "8.0", "county": "42654.8270833333"}}, {"type": "Feature", "geometry": {"type": "Point", "coordinates": [-82.54222, 39.11644]}, "properties": {"name": "16-100551", "address": "nan, 720 W 9TH ST, WELLSTON, Ohio, 45692.0", "zip": "45692.0", "city": "WELLSTON", "state": "8.0", "county": "42654.8270833333"}}, {"type": "Feature", "geometry": {"type": "Point", "coordinates": [-82.54222, 39.11644]}, "properties": {"name": "16-100551", "address": "nan, 720 W 9TH ST, WELLSTON, Ohio, 45692.0", "zip": "45692.0", "city": "WELLSTON", "state": "8.0", "county": "42654.8270833333"}}, {"type": "Feature", "geometry": {"type": "Point", "coordinates": [-82.62, 39.02]}, "properties": {"name": "16-1017---04", "address": "nan, EAST MITCHELL ST, JACKSON, Ohio, 45640.0", "zip": "45640.0", "city": "JACKSON", "state": "6.0", "county": "42613.9979166667"}}, {"type": "Feature", "geometry": {"type": "Point", "coordinates": [-82.62, 39.02]}, "properties": {"name": "16-1017---04", "address": "nan, EAST MITCHELL ST, JACKSON, Ohio, 45640.0", "zip": "45640.0", "city": "JACKSON", "state": "6.0", "county": "42613.9979166667"}}, {"type": "Feature", "geometry": {"type": "Point", "coordinates": [-82.532938, 39.123405]}, "properties": {"name": "16-110577", "address": "nan, 10TH & RHODE ISLAND AVE, WELLSTON, Ohio, 45692.0", "zip": "45692.0", "city": "WELLSTON", "state": "6.0", "county": "42677.5666666667"}}, {"type": "Feature", "geometry": {"type": "Point", "coordinates": [-82.532938, 39.123405]}, "properties": {"name": "16-110577", "address": "nan, 10TH & RHODE ISLAND AVE, WELLSTON, Ohio, 45692.0", "zip": "45692.0", "city": "WELLSTON", "state": "6.0", "county": "42677.5666666667"}}, {"type": "Feature", "geometry": {"type": "Point", "coordinates": [-82.532938, 39.123405]}, "properties": {"name": "16-110577", "address": "nan, 10TH & RHODE ISLAND AVE, WELLSTON, Ohio, 45692.0", "zip": "45692.0", "city": "WELLSTON", "state": "6.0", "county": "42677.5666666667"}}, {"type": "Feature", "geometry": {"type": "Point", "coordinates": [-74.9786, 43.32243]}, "properties": {"name": "16-110588", "address": "nan, 10TH AND NEW YORK, WELLSTON, Ohio, 45692.0", "zip": "45692.0", "city": "WELLSTON", "state": "6.0", "county": "42685.7416666667"}}, {"type": "Feature", "geometry": {"type": "Point", "coordinates": [-82.636554, 39.052017]}, "properties": {"name": "16-1162---JM", "address": "nan, US HIGHWAY 35 EAST AND MILEPOST 10, T 10      JACKSON, Ohio, 45640.0", "zip": "45640.0", "city": "T 10      JACKSON", "state": "1.0", "county": "42454.7097222222"}}, {"type": "Feature", "geometry": {"type": "Point", "coordinates": [-82.636554, 39.052017]}, "properties": {"name": "16-1162---JM", "address": "nan, US HIGHWAY 35 EAST AND MILEPOST 10, T 10      JACKSON, Ohio, 45640.0", "zip": "45640.0", "city": "T 10      JACKSON", "state": "1.0", "county": "42454.7097222222"}}, {"type": "Feature", "geometry": {"type": "Point", "coordinates": [-82.534715, 39.112705]}, "properties": {"name": "16-120629", "address": "SPEEDWAY, 1219 PENNSYLVANIA AVE, WELLSTON, Ohio, 45692.0", "zip": "45692.0", "city": "WELLSTON", "state": "6.0", "county": "42712.875"}}, {"type": "Feature", "geometry": {"type": "Point", "coordinates": [-82.534715, 39.112705]}, "properties": {"name": "16-120629", "address": "SPEEDWAY, 1219 PENNSYLVANIA AVE, WELLSTON, Ohio, 45692.0", "zip": "45692.0", "city": "WELLSTON", "state": "6.0", "county": "42712.875"}}, {"type": "Feature", "geometry": {"type": "Point", "coordinates": [-82.532938, 39.123405]}, "properties": {"name": "16-120650", "address": "nan, SECOND ST AND S. PENNSYLVANIA AVE., AVE.      WELLSTON, Ohio, 45692.0", "zip": "45692.0", "city": "AVE.      WELLSTON", "state": "6.0", "county": "42724.75"}}, {"type": "Feature", "geometry": {"type": "Point", "coordinates": [-82.532938, 39.123405]}, "properties": {"name": "16-120666", "address": "nan, 223 EAST BROADWAY ST., WELLSTON, Ohio, 45692.0", "zip": "45692.0", "city": "WELLSTON", "state": "6.0", "county": "42731.78125"}}, {"type": "Feature", "geometry": {"type": "Point", "coordinates": [-82.76499, 38.99347]}, "properties": {"name": "16-1253---JS", "address": "nan, 910 WEBER RD, JACKSON, Ohio, 45640.0", "zip": "45640.0", "city": "JACKSON", "state": "8.0", "county": "42459.4902777778"}}, {"type": "Feature", "geometry": {"type": "Point", "coordinates": [-82.76499, 38.99347]}, "properties": {"name": "16-1253---JS", "address": "nan, 910 WEBER RD, JACKSON, Ohio, 45640.0", "zip": "45640.0", "city": "JACKSON", "state": "8.0", "county": "42459.4902777778"}}, {"type": "Feature", "geometry": {"type": "Point", "coordinates": [-82.636554, 39.052017]}, "properties": {"name": "16-1273---05", "address": "nan, DAVID AVE., JACKSON, Ohio, 45640.0", "zip": "45640.0", "city": "JACKSON", "state": "8.0", "county": "42672.85625"}}, {"type": "Feature", "geometry": {"type": "Point", "coordinates": [-82.636554, 39.052017]}, "properties": {"name": "16-1273---05", "address": "nan, DAVID AVE., JACKSON, Ohio, 45640.0", "zip": "45640.0", "city": "JACKSON", "state": "8.0", "county": "42672.85625"}}, {"type": "Feature", "geometry": {"type": "Point", "coordinates": [-82.62, 39.02]}, "properties": {"name": "16-1319---05", "address": "nan, MT. ZION RD., JACKSON, Ohio, 45640.0", "zip": "45640.0", "city": "JACKSON", "state": "6.0", "county": "42684.8284722222"}}, {"type": "Feature", "geometry": {"type": "Point", "coordinates": [-82.62, 39.02]}, "properties": {"name": "16-1319---05", "address": "nan, MT. ZION RD., JACKSON, Ohio, 45640.0", "zip": "45640.0", "city": "JACKSON", "state": "6.0", "county": "42684.8284722222"}}, {"type": "Feature", "geometry": {"type": "Point", "coordinates": [-82.296254, 38.884787]}, "properties": {"name": "16-1593---JM", "address": "nan, US35 AND 84, JACKSON, Ohio, 45640.0", "zip": "45640.0", "city": "JACKSON", "state": "1.0", "county": "42477.7625"}}, {"type": "Feature", "geometry": {"type": "Point", "coordinates": [-82.296254, 38.884787]}, "properties": {"name": "16-2100---JM", "address": "nan, US35 AND 84, JACKSON, Ohio, 45640.0", "zip": "45640.0", "city": "JACKSON", "state": "1.0", "county": "42511.8263888889"}}, {"type": "Feature", "geometry": {"type": "Point", "coordinates": [-82.296254, 38.884787]}, "properties": {"name": "16-2100---JM", "address": "nan, US35 AND 84, JACKSON, Ohio, 45640.0", "zip": "45640.0", "city": "JACKSON", "state": "1.0", "county": "42511.8263888889"}}, {"type": "Feature", "geometry": {"type": "Point", "coordinates": [-82.296254, 38.884787]}, "properties": {"name": "16-2100---JM", "address": "nan, US35 AND 84, JACKSON, Ohio, 45640.0", "zip": "45640.0", "city": "JACKSON", "state": "1.0", "county": "42511.8263888889"}}, {"type": "Feature", "geometry": {"type": "Point", "coordinates": [-82.296254, 38.884787]}, "properties": {"name": "16-2100---JM", "address": "nan, US35 AND 84, JACKSON, Ohio, 45640.0", "zip": "45640.0", "city": "JACKSON", "state": "1.0", "county": "42511.8263888889"}}, {"type": "Feature", "geometry": {"type": "Point", "coordinates": [-82.296254, 38.884787]}, "properties": {"name": "16-2100---JM", "address": "nan, US35 AND 84, JACKSON, Ohio, 45640.0", "zip": "45640.0", "city": "JACKSON", "state": "1.0", "county": "42511.8263888889"}}, {"type": "Feature", "geometry": {"type": "Point", "coordinates": [-82.296254, 38.884787]}, "properties": {"name": "16-2100---JM", "address": "nan, US35 AND 84, JACKSON, Ohio, 45640.0", "zip": "45640.0", "city": "JACKSON", "state": "1.0", "county": "42511.8263888889"}}, {"type": "Feature", "geometry": {"type": "Point", "coordinates": [-82.296254, 38.884787]}, "properties": {"name": "16-2100---JM", "address": "nan, US35 AND 84, JACKSON, Ohio, 45640.0", "zip": "45640.0", "city": "JACKSON", "state": "6.0", "county": "42511.8263888889"}}, {"type": "Feature", "geometry": {"type": "Point", "coordinates": [-82.296254, 38.884787]}, "properties": {"name": "16-2100---JM", "address": "nan, US35 AND 84, JACKSON, Ohio, 45640.0", "zip": "45640.0", "city": "JACKSON", "state": "6.0", "county": "42511.8263888889"}}, {"type": "Feature", "geometry": {"type": "Point", "coordinates": [-82.296254, 38.884787]}, "properties": {"name": "16-2100---JM", "address": "nan, US35 AND 84, JACKSON, Ohio, 45640.0", "zip": "45640.0", "city": "JACKSON", "state": "6.0", "county": "42511.8263888889"}}, {"type": "Feature", "geometry": {"type": "Point", "coordinates": [-82.296254, 38.884787]}, "properties": {"name": "16-2100---JM", "address": "nan, US35 AND 84, JACKSON, Ohio, 45640.0", "zip": "45640.0", "city": "JACKSON", "state": "6.0", "county": "42511.8263888889"}}, {"type": "Feature", "geometry": {"type": "Point", "coordinates": [-82.296254, 38.884787]}, "properties": {"name": "16-2100---JM", "address": "nan, US35 AND 84, JACKSON, Ohio, 45640.0", "zip": "45640.0", "city": "JACKSON", "state": "6.0", "county": "42511.8263888889"}}, {"type": "Feature", "geometry": {"type": "Point", "coordinates": [-82.296254, 38.884787]}, "properties": {"name": "16-2100---JM", "address": "nan, US35 AND 84, JACKSON, Ohio, 45640.0", "zip": "45640.0", "city": "JACKSON", "state": "6.0", "county": "42511.8263888889"}}, {"type": "Feature", "geometry": {"type": "Point", "coordinates": [-82.636554, 39.052017]}, "properties": {"name": "16-2590---JM", "address": "nan, US 35E AT MILE POST 10, JACKSON, Ohio, 45640.0", "zip": "45640.0", "city": "JACKSON", "state": "1.0", "county": "42541.7805555556"}}, {"type": "Feature", "geometry": {"type": "Point", "coordinates": [-82.636554, 39.052017]}, "properties": {"name": "16-2590---JM", "address": "nan, US 35E AT MILE POST 10, JACKSON, Ohio, 45640.0", "zip": "45640.0", "city": "JACKSON", "state": "1.0", "county": "42541.7805555556"}}, {"type": "Feature", "geometry": {"type": "Point", "coordinates": [-82.636554, 39.052017]}, "properties": {"name": "16-2590---JM", "address": "nan, US 35E AT MILE POST 10, JACKSON, Ohio, 45640.0", "zip": "45640.0", "city": "JACKSON", "state": "1.0", "county": "42541.7805555556"}}, {"type": "Feature", "geometry": {"type": "Point", "coordinates": [-82.636554, 39.052017]}, "properties": {"name": "16-2590---JM", "address": "nan, US 35E AT MILE POST 10, JACKSON, Ohio, 45640.0", "zip": "45640.0", "city": "JACKSON", "state": "1.0", "county": "42541.7805555556"}}, {"type": "Feature", "geometry": {"type": "Point", "coordinates": [-82.636554, 39.052017]}, "properties": {"name": "16-3315---JM", "address": "nan, US HIGHWAY 35 EAST AND STATE ROUTE 93, OUTE 93   JACKSON, Ohio, 45640.0", "zip": "45640.0", "city": "OUTE 93   JACKSON", "state": "6.0", "county": "42587.8458333333"}}, {"type": "Feature", "geometry": {"type": "Point", "coordinates": [-82.636554, 39.052017]}, "properties": {"name": "16-3315---JM", "address": "nan, US HIGHWAY 35 EAST AND STATE ROUTE 93, OUTE 93   JACKSON, Ohio, 45640.0", "zip": "45640.0", "city": "OUTE 93   JACKSON", "state": "6.0", "county": "42587.8458333333"}}, {"type": "Feature", "geometry": {"type": "Point", "coordinates": [-82.281828, 40.921445]}, "properties": {"name": "16-3750---JM", "address": "nan, nan, nan, Ohio, nan", "zip": "nan", "city": "nan", "state": "1.0", "county": "42618.8791666667"}}, {"type": "Feature", "geometry": {"type": "Point", "coordinates": [-82.281828, 40.921445]}, "properties": {"name": "16-3750---JM", "address": "nan, nan, nan, Ohio, nan", "zip": "nan", "city": "nan", "state": "1.0", "county": "42618.8791666667"}}, {"type": "Feature", "geometry": {"type": "Point", "coordinates": [-82.281828, 40.921445]}, "properties": {"name": "16-3750---JM", "address": "nan, nan, nan, Ohio, nan", "zip": "nan", "city": "nan", "state": "1.0", "county": "42618.8791666667"}}, {"type": "Feature", "geometry": {"type": "Point", "coordinates": [-82.281828, 40.921445]}, "properties": {"name": "16-3750---JM", "address": "nan, nan, nan, Ohio, nan", "zip": "nan", "city": "nan", "state": "1.0", "county": "42618.8791666667"}}, {"type": "Feature", "geometry": {"type": "Point", "coordinates": [-82.281828, 40.921445]}, "properties": {"name": "16-3750---JM", "address": "nan, nan, nan, Ohio, nan", "zip": "nan", "city": "nan", "state": "1.0", "county": "42618.8791666667"}}, {"type": "Feature", "geometry": {"type": "Point", "coordinates": [-82.281828, 40.921445]}, "properties": {"name": "16-3750---JM", "address": "nan, nan, nan, Ohio, nan", "zip": "nan", "city": "nan", "state": "1.0", "county": "42618.8791666667"}}, {"type": "Feature", "geometry": {"type": "Point", "coordinates": [-82.281828, 40.921445]}, "properties": {"name": "16-3750---JM", "address": "nan, nan, nan, Ohio, nan", "zip": "nan", "city": "nan", "state": "6.0", "county": "42618.8791666667"}}, {"type": "Feature", "geometry": {"type": "Point", "coordinates": [-82.281828, 40.921445]}, "properties": {"name": "16-3750---JM", "address": "nan, nan, nan, Ohio, nan", "zip": "nan", "city": "nan", "state": "6.0", "county": "42618.8791666667"}}, {"type": "Feature", "geometry": {"type": "Point", "coordinates": [-82.281828, 40.921445]}, "properties": {"name": "16-3750---JM", "address": "nan, nan, nan, Ohio, nan", "zip": "nan", "city": "nan", "state": "6.0", "county": "42618.8791666667"}}, {"type": "Feature", "geometry": {"type": "Point", "coordinates": [-82.281828, 40.921445]}, "properties": {"name": "16-3750---JM", "address": "nan, nan, nan, Ohio, nan", "zip": "nan", "city": "nan", "state": "6.0", "county": "42618.8791666667"}}, {"type": "Feature", "geometry": {"type": "Point", "coordinates": [-82.281828, 40.921445]}, "properties": {"name": "16-3750---JM", "address": "nan, nan, nan, Ohio, nan", "zip": "nan", "city": "nan", "state": "6.0", "county": "42618.8791666667"}}, {"type": "Feature", "geometry": {"type": "Point", "coordinates": [-82.281828, 40.921445]}, "properties": {"name": "16-3750---JM", "address": "nan, nan, nan, Ohio, nan", "zip": "nan", "city": "nan", "state": "6.0", "county": "42618.8791666667"}}, {"type": "Feature", "geometry": {"type": "Point", "coordinates": [-82.576357, 39.107127]}, "properties": {"name": "16-3828---JM", "address": "nan, US RTE 35 - CR 86, JACKSON, Ohio, 45640.0", "zip": "45640.0", "city": "JACKSON", "state": "1.0", "county": "42624.8861111111"}}, {"type": "Feature", "geometry": {"type": "Point", "coordinates": [-82.636554, 39.052017]}, "properties": {"name": "16-4130---JM", "address": "nan, 35 AND 84, JACKSON, Ohio, 45640.0", "zip": "45640.0", "city": "JACKSON", "state": "1.0", "county": "42625.8673611111"}}, {"type": "Feature", "geometry": {"type": "Point", "coordinates": [15.16667, 47.25]}, "properties": {"name": "16-4381---RZ", "address": "nan, ST RTE 93 AT ROSCOE RD, JACKSON, Ohio, 45640.0", "zip": "45640.0", "city": "JACKSON", "state": "6.0", "county": "42663.7027777778"}}, {"type": "Feature", "geometry": {"type": "Point", "coordinates": [15.16667, 47.25]}, "properties": {"name": "16-4381---RZ", "address": "nan, ST RTE 93 AT ROSCOE RD, JACKSON, Ohio, 45640.0", "zip": "45640.0", "city": "JACKSON", "state": "6.0", "county": "42663.7027777778"}}, {"type": "Feature", "geometry": {"type": "Point", "coordinates": [-82.70496, 39.02244]}, "properties": {"name": "16-5226---JF", "address": "nan, 356 CALLAHAN RD, JACKSON, Ohio, 45640.0", "zip": "45640.0", "city": "JACKSON", "state": "1.0", "county": "42718.5236111111"}}, {"type": "Feature", "geometry": {"type": "Point", "coordinates": [-82.144868, 39.27924]}, "properties": {"name": "17-0092---04", "address": "nan, FISHER DR., JACKSON, Ohio, 45640.0", "zip": "45640.0", "city": "JACKSON", "state": "6.0", "county": "42766.8784722222"}}, {"type": "Feature", "geometry": {"type": "Point", "coordinates": [-82.636554, 39.052017]}, "properties": {"name": "17-0095---04", "address": "nan, BROADWAY STR. AT PEARL STR., JACKSON, Ohio, 45640.0", "zip": "45640.0", "city": "JACKSON", "state": "6.0", "county": "42767.0645833333"}}, {"type": "Feature", "geometry": {"type": "Point", "coordinates": [-82.7114488167578, 40.4174201146]}, "properties": {"name": "17-010058", "address": "nan, W. BROADWAY ST. NEAR PARK AVE., WELLSTON, Ohio, 45692.0", "zip": "45692.0", "city": "WELLSTON", "state": "6.0", "county": "42760.7979166667"}}, {"type": "Feature", "geometry": {"type": "Point", "coordinates": [-82.5376, 39.09512]}, "properties": {"name": "17-020091", "address": "AUTOZONE, SOUTH PENNSYLVANIA AVE, WELLSTON, Ohio, 45692.0", "zip": "45692.0", "city": "WELLSTON", "state": "6.0", "county": "42773.7666666667"}}, {"type": "Feature", "geometry": {"type": "Point", "coordinates": [-82.5376, 39.09512]}, "properties": {"name": "17-020091", "address": "AUTOZONE, SOUTH PENNSYLVANIA AVE, WELLSTON, Ohio, 45692.0", "zip": "45692.0", "city": "WELLSTON", "state": "6.0", "county": "42773.7666666667"}}, {"type": "Feature", "geometry": {"type": "Point", "coordinates": [-82.53463, 39.12554]}, "properties": {"name": "17-030155", "address": "nan, 7 EAST B ST., WELLSTON, Ohio, 45692.0", "zip": "45692.0", "city": "WELLSTON", "state": "8.0", "county": "42818.3756944444"}}, {"type": "Feature", "geometry": {"type": "Point", "coordinates": [-82.53463, 39.12554]}, "properties": {"name": "17-030155", "address": "nan, 7 EAST B ST., WELLSTON, Ohio, 45692.0", "zip": "45692.0", "city": "WELLSTON", "state": "8.0", "county": "42818.3756944444"}}, {"type": "Feature", "geometry": {"type": "Point", "coordinates": [-83.378533, 40.484224]}, "properties": {"name": "17-0389---05", "address": "WALGREENS, E MAIN ST, JACKSON, Ohio, 45640.0", "zip": "45640.0", "city": "JACKSON", "state": "8.0", "county": "42844.7375"}}, {"type": "Feature", "geometry": {"type": "Point", "coordinates": [-83.378533, 40.484224]}, "properties": {"name": "17-0389---05", "address": "WALGREENS, E MAIN ST, JACKSON, Ohio, 45640.0", "zip": "45640.0", "city": "JACKSON", "state": "8.0", "county": "42844.7375"}}, {"type": "Feature", "geometry": {"type": "Point", "coordinates": [-82.636554, 39.052017]}, "properties": {"name": "17-0399---05", "address": "nan, HURON STR. AT BUS GARAGE, JACKSON, Ohio, 45640.0", "zip": "45640.0", "city": "JACKSON", "state": "1.0", "county": "42846.7493055556"}}, {"type": "Feature", "geometry": {"type": "Point", "coordinates": [-82.532938, 39.123405]}, "properties": {"name": "17-040204", "address": "nan, VERMONT AND 12TH ST, WELLSTON, Ohio, 45692.0", "zip": "45692.0", "city": "WELLSTON", "state": "2.0", "county": "42843.2326388889"}}, {"type": "Feature", "geometry": {"type": "Point", "coordinates": [-82.636554, 39.052017]}, "properties": {"name": "17-0442---05", "address": "nan, CHURCH ST & WALNUT ST, JACKSON, Ohio, 45640.0", "zip": "45640.0", "city": "JACKSON", "state": "6.0", "county": "42854.9680555556"}}, {"type": "Feature", "geometry": {"type": "Point", "coordinates": [-82.636554, 39.052017]}, "properties": {"name": "17-0442---05", "address": "nan, CHURCH ST & WALNUT ST, JACKSON, Ohio, 45640.0", "zip": "45640.0", "city": "JACKSON", "state": "6.0", "county": "42854.9680555556"}}, {"type": "Feature", "geometry": {"type": "Point", "coordinates": [-82.636554, 39.052017]}, "properties": {"name": "17-0442---05", "address": "nan, CHURCH ST & WALNUT ST, JACKSON, Ohio, 45640.0", "zip": "45640.0", "city": "JACKSON", "state": "6.0", "county": "42854.9680555556"}}, {"type": "Feature", "geometry": {"type": "Point", "coordinates": [-82.532938, 39.123405]}, "properties": {"name": "17-050275", "address": "nan, 1310 S VERMONT & 101 EAST D ST, WELLSTON, Ohio, 45692.0", "zip": "45692.0", "city": "WELLSTON", "state": "1.0", "county": "42865.9152777778"}}, {"type": "Feature", "geometry": {"type": "Point", "coordinates": [-82.611966, 39.105877]}, "properties": {"name": "17-050285", "address": "nan, 12TH & PENN, WELLSTON, Ohio, 45692.0", "zip": "45692.0", "city": "WELLSTON", "state": "1.0", "county": "42876.0416666667"}}, {"type": "Feature", "geometry": {"type": "Point", "coordinates": [-82.611966, 39.105877]}, "properties": {"name": "17-050285", "address": "nan, 12TH & PENN, WELLSTON, Ohio, 45692.0", "zip": "45692.0", "city": "WELLSTON", "state": "1.0", "county": "42876.0416666667"}}, {"type": "Feature", "geometry": {"type": "Point", "coordinates": [-82.611966, 39.105877]}, "properties": {"name": "17-050285", "address": "nan, 12TH & PENN, WELLSTON, Ohio, 45692.0", "zip": "45692.0", "city": "WELLSTON", "state": "1.0", "county": "42876.0416666667"}}, {"type": "Feature", "geometry": {"type": "Point", "coordinates": [-82.636554, 39.052017]}, "properties": {"name": "17-0560---03", "address": "MCDONALD S, 588 E MAIN STREET, JACKSON, Ohio, 45640.0", "zip": "45640.0", "city": "JACKSON", "state": "6.0", "county": "42888.3131944444"}}, {"type": "Feature", "geometry": {"type": "Point", "coordinates": [-82.636554, 39.052017]}, "properties": {"name": "17-0560---03", "address": "MCDONALD S, 588 E MAIN STREET, JACKSON, Ohio, 45640.0", "zip": "45640.0", "city": "JACKSON", "state": "6.0", "county": "42888.3131944444"}}, {"type": "Feature", "geometry": {"type": "Point", "coordinates": [-82.636554, 39.052017]}, "properties": {"name": "17-0560---03", "address": "MCDONALD S, 588 E MAIN STREET, JACKSON, Ohio, 45640.0", "zip": "45640.0", "city": "JACKSON", "state": "6.0", "county": "42888.3131944444"}}, {"type": "Feature", "geometry": {"type": "Point", "coordinates": [-82.532938, 39.123405]}, "properties": {"name": "17-070398", "address": "THE STORE, 7 PENNSYLVANIA AVE, WELLSTON, Ohio, 45692.0", "zip": "45692.0", "city": "WELLSTON", "state": "8.0", "county": "42937.6784722222"}}, {"type": "Feature", "geometry": {"type": "Point", "coordinates": [-82.52829, 39.11512]}, "properties": {"name": "17-070415", "address": "nan, EAST 10TH ST., WELLSTON, Ohio, 45692.0", "zip": "45692.0", "city": "WELLSTON", "state": "1.0", "county": "42943.2930555556"}}, {"type": "Feature", "geometry": {"type": "Point", "coordinates": [-82.636554, 39.052017]}, "properties": {"name": "17-0834---04", "address": "nan, ANDERSON / DAWSON, JACKSON, Ohio, 45640.0", "zip": "45640.0", "city": "JACKSON", "state": "6.0", "county": "42955.9208333333"}}, {"type": "Feature", "geometry": {"type": "Point", "coordinates": [-82.636554, 39.052017]}, "properties": {"name": "17-0834---04", "address": "nan, ANDERSON / DAWSON, JACKSON, Ohio, 45640.0", "zip": "45640.0", "city": "JACKSON", "state": "6.0", "county": "42955.9208333333"}}, {"type": "Feature", "geometry": {"type": "Point", "coordinates": [-82.636554, 39.052017]}, "properties": {"name": "17-0834---04", "address": "nan, ANDERSON / DAWSON, JACKSON, Ohio, 45640.0", "zip": "45640.0", "city": "JACKSON", "state": "6.0", "county": "42955.9208333333"}}, {"type": "Feature", "geometry": {"type": "Point", "coordinates": [-82.636554, 39.052017]}, "properties": {"name": "17-0834---04", "address": "nan, ANDERSON / DAWSON, JACKSON, Ohio, 45640.0", "zip": "45640.0", "city": "JACKSON", "state": "6.0", "county": "42955.9208333333"}}, {"type": "Feature", "geometry": {"type": "Point", "coordinates": [-82.636554, 39.052017]}, "properties": {"name": "17-0844---05", "address": "nan, HURON/BENNETT, JACKSON, Ohio, 45640.0", "zip": "45640.0", "city": "JACKSON", "state": "8.0", "county": "42957.7791666667"}}, {"type": "Feature", "geometry": {"type": "Point", "coordinates": [-82.636554, 39.052017]}, "properties": {"name": "17-0844---05", "address": "nan, HURON/BENNETT, JACKSON, Ohio, 45640.0", "zip": "45640.0", "city": "JACKSON", "state": "8.0", "county": "42957.7791666667"}}, {"type": "Feature", "geometry": {"type": "Point", "coordinates": [-82.636554, 39.052017]}, "properties": {"name": "17-0844---05", "address": "nan, HURON/BENNETT, JACKSON, Ohio, 45640.0", "zip": "45640.0", "city": "JACKSON", "state": "8.0", "county": "42957.7791666667"}}, {"type": "Feature", "geometry": {"type": "Point", "coordinates": [-82.636554, 39.052017]}, "properties": {"name": "17-0844---05", "address": "nan, HURON/BENNETT, JACKSON, Ohio, 45640.0", "zip": "45640.0", "city": "JACKSON", "state": "8.0", "county": "42957.7791666667"}}, {"type": "Feature", "geometry": {"type": "Point", "coordinates": [-82.636554, 39.052017]}, "properties": {"name": "17-0938---00", "address": "nan, GAY STR. AT MISSOURI AVE, JACKSON, Ohio, 45640.0", "zip": "45640.0", "city": "JACKSON", "state": "1.0", "county": "42981.8805555556"}}, {"type": "Feature", "geometry": {"type": "Point", "coordinates": [-82.636554, 39.052017]}, "properties": {"name": "17-0938---00", "address": "nan, GAY STR. AT MISSOURI AVE, JACKSON, Ohio, 45640.0", "zip": "45640.0", "city": "JACKSON", "state": "1.0", "county": "42981.8805555556"}}, {"type": "Feature", "geometry": {"type": "Point", "coordinates": [-82.532938, 39.123405]}, "properties": {"name": "17-100560", "address": "nan, ALLEY BEHIND AUTOZONE, WELLSTON, Ohio, 45692.0", "zip": "45692.0", "city": "WELLSTON", "state": "8.0", "county": "43026.8597222222"}}, {"type": "Feature", "geometry": {"type": "Point", "coordinates": [-82.532938, 39.123405]}, "properties": {"name": "17-100560", "address": "nan, ALLEY BEHIND AUTOZONE, WELLSTON, Ohio, 45692.0", "zip": "45692.0", "city": "WELLSTON", "state": "8.0", "county": "43026.8597222222"}}, {"type": "Feature", "geometry": {"type": "Point", "coordinates": [-82.532938, 39.123405]}, "properties": {"name": "17-100560", "address": "nan, ALLEY BEHIND AUTOZONE, WELLSTON, Ohio, 45692.0", "zip": "45692.0", "city": "WELLSTON", "state": "8.0", "county": "43026.8597222222"}}, {"type": "Feature", "geometry": {"type": "Point", "coordinates": [-82.636554, 39.052017]}, "properties": {"name": "17-1116---00", "address": "nan, W. MAIN STR., JACKSON, Ohio, 45640.0", "zip": "45640.0", "city": "JACKSON", "state": "6.0", "county": "43021.6631944444"}}, {"type": "Feature", "geometry": {"type": "Point", "coordinates": [-82.611275, 39.113683]}, "properties": {"name": "17-3700---JW", "address": "nan, BROADWAY AND CHURCH, COALTON, Ohio, 45621.0", "zip": "45621.0", "city": "COALTON", "state": "1.0", "county": "42994.8909722222"}}, {"type": "Feature", "geometry": {"type": "Point", "coordinates": [-82.611275, 39.113683]}, "properties": {"name": "17-3700---JW", "address": "nan, BROADWAY AND CHURCH, COALTON, Ohio, 45621.0", "zip": "45621.0", "city": "COALTON", "state": "1.0", "county": "42994.8909722222"}}, {"type": "Feature", "geometry": {"type": "Point", "coordinates": [-82.611275, 39.113683]}, "properties": {"name": "17-3700---JW", "address": "nan, BROADWAY AND CHURCH, COALTON, Ohio, 45621.0", "zip": "45621.0", "city": "COALTON", "state": "1.0", "county": "42994.8909722222"}}, {"type": "Feature", "geometry": {"type": "Point", "coordinates": [-82.611275, 39.113683]}, "properties": {"name": "17-3700---JW", "address": "nan, BROADWAY AND CHURCH, COALTON, Ohio, 45621.0", "zip": "45621.0", "city": "COALTON", "state": "1.0", "county": "42994.8909722222"}}, {"type": "Feature", "geometry": {"type": "Point", "coordinates": [-82.6503, 39.07839]}, "properties": {"name": "17-4353---JM", "address": "nan, US 35 AND CHILLICOTHE PIKE, JACKSON, Ohio, 45640.0", "zip": "45640.0", "city": "JACKSON", "state": "1.0", "county": "43042.1652777778"}}, {"type": "Feature", "geometry": {"type": "Point", "coordinates": [-82.6503, 39.07839]}, "properties": {"name": "17-4353---JM", "address": "nan, US 35 AND CHILLICOTHE PIKE, JACKSON, Ohio, 45640.0", "zip": "45640.0", "city": "JACKSON", "state": "1.0", "county": "43042.1652777778"}}, {"type": "Feature", "geometry": {"type": "Point", "coordinates": [-82.7114488167578, 40.4174201146]}, "properties": {"name": "17-4810---RC", "address": "nan, ST RTE 93 SOUTH, OAK HILL, Ohio, 45656.0", "zip": "45656.0", "city": "OAK HILL", "state": "1.0", "county": "43073.0395833333"}}, {"type": "Feature", "geometry": {"type": "Point", "coordinates": [-82.7114488167578, 40.4174201146]}, "properties": {"name": "17-4810---RC", "address": "nan, ST RTE 93 SOUTH, OAK HILL, Ohio, 45656.0", "zip": "45656.0", "city": "OAK HILL", "state": "1.0", "county": "43073.0395833333"}}, {"type": "Feature", "geometry": {"type": "Point", "coordinates": [-82.7114488167578, 40.4174201146]}, "properties": {"name": "17-4810---RC", "address": "nan, ST RTE 93 SOUTH, OAK HILL, Ohio, 45656.0", "zip": "45656.0", "city": "OAK HILL", "state": "1.0", "county": "43073.0395833333"}}, {"type": "Feature", "geometry": {"type": "Point", "coordinates": [-82.7114488167578, 40.4174201146]}, "properties": {"name": "17-4810---RC", "address": "nan, ST RTE 93 SOUTH, OAK HILL, Ohio, 45656.0", "zip": "45656.0", "city": "OAK HILL", "state": "1.0", "county": "43073.0395833333"}}, {"type": "Feature", "geometry": {"type": "Point", "coordinates": [-82.7114488167578, 40.4174201146]}, "properties": {"name": "17-4810---RC", "address": "nan, ST RTE 93 SOUTH, OAK HILL, Ohio, 45656.0", "zip": "45656.0", "city": "OAK HILL", "state": "1.0", "county": "43073.0395833333"}}, {"type": "Feature", "geometry": {"type": "Point", "coordinates": [-82.7114488167578, 40.4174201146]}, "properties": {"name": "17-4810---RC", "address": "nan, ST RTE 93 SOUTH, OAK HILL, Ohio, 45656.0", "zip": "45656.0", "city": "OAK HILL", "state": "1.0", "county": "43073.0395833333"}}, {"type": "Feature", "geometry": {"type": "Point", "coordinates": [-82.53339, 39.123185]}, "properties": {"name": "18-0191---RZ", "address": "nan, 7 SOUTH PENNSYLVANIA AVE, WELLSTON, Ohio, 45692.0", "zip": "45692.0", "city": "WELLSTON", "state": "1.0", "county": "43116.9291666667"}}, {"type": "Feature", "geometry": {"type": "Point", "coordinates": [-82.53339, 39.123185]}, "properties": {"name": "18-0191---RZ", "address": "nan, 7 SOUTH PENNSYLVANIA AVE, WELLSTON, Ohio, 45692.0", "zip": "45692.0", "city": "WELLSTON", "state": "1.0", "county": "43116.9291666667"}}, {"type": "Feature", "geometry": {"type": "Point", "coordinates": [-82.554185, 38.895133]}, "properties": {"name": "18-0212---03", "address": "INTEGRATED SERVICES, 287 E. MAIN ST, JACKSON, Ohio, 45640.0", "zip": "45640.0", "city": "JACKSON", "state": "1.0", "county": "43166.6368055556"}}, {"type": "Feature", "geometry": {"type": "Point", "coordinates": [-82.554185, 38.895133]}, "properties": {"name": "18-0212---03", "address": "INTEGRATED SERVICES, 287 E. MAIN ST, JACKSON, Ohio, 45640.0", "zip": "45640.0", "city": "JACKSON", "state": "1.0", "county": "43166.6368055556"}}, {"type": "Feature", "geometry": {"type": "Point", "coordinates": [-82.554185, 38.895133]}, "properties": {"name": "18-0212---03", "address": "INTEGRATED SERVICES, 287 E. MAIN ST, JACKSON, Ohio, 45640.0", "zip": "45640.0", "city": "JACKSON", "state": "1.0", "county": "43166.6368055556"}}, {"type": "Feature", "geometry": {"type": "Point", "coordinates": [-82.636554, 39.052017]}, "properties": {"name": "18-0274---03", "address": "nan, MAIN STR. NEAR SONIC, JACKSON, Ohio, 45640.0", "zip": "45640.0", "city": "JACKSON", "state": "1.0", "county": "43186.0770833333"}}, {"type": "Feature", "geometry": {"type": "Point", "coordinates": [-82.532938, 39.123405]}, "properties": {"name": "18-030155", "address": "nan, S. PENNSYLVANIA AVE. NEAR 2ND ST., ST.       WELLSTON, Ohio, 45692.0", "zip": "45692.0", "city": "ST.       WELLSTON", "state": "1.0", "county": "43184.8826388889"}}, {"type": "Feature", "geometry": {"type": "Point", "coordinates": [-82.532938, 39.123405]}, "properties": {"name": "18-030155", "address": "nan, S. PENNSYLVANIA AVE. NEAR 2ND ST., ST.       WELLSTON, Ohio, 45692.0", "zip": "45692.0", "city": "ST.       WELLSTON", "state": "1.0", "county": "43184.8826388889"}}, {"type": "Feature", "geometry": {"type": "Point", "coordinates": [-82.532938, 39.123405]}, "properties": {"name": "18-030155", "address": "nan, S. PENNSYLVANIA AVE. NEAR 2ND ST., ST.       WELLSTON, Ohio, 45692.0", "zip": "45692.0", "city": "ST.       WELLSTON", "state": "1.0", "county": "43184.8826388889"}}, {"type": "Feature", "geometry": {"type": "Point", "coordinates": [-82.532938, 39.123405]}, "properties": {"name": "18-030155", "address": "nan, S. PENNSYLVANIA AVE. NEAR 2ND ST., ST.       WELLSTON, Ohio, 45692.0", "zip": "45692.0", "city": "ST.       WELLSTON", "state": "1.0", "county": "43184.8826388889"}}, {"type": "Feature", "geometry": {"type": "Point", "coordinates": [-82.532938, 39.123405]}, "properties": {"name": "18-030155", "address": "nan, S. PENNSYLVANIA AVE. NEAR 2ND ST., ST.       WELLSTON, Ohio, 45692.0", "zip": "45692.0", "city": "ST.       WELLSTON", "state": "1.0", "county": "43184.8826388889"}}, {"type": "Feature", "geometry": {"type": "Point", "coordinates": [100.78243, 18.7678]}, "properties": {"name": "18-0348---00", "address": "nan, S CHESTNUT ST/ORANGE ST, JACKSON, Ohio, 45640.0", "zip": "45640.0", "city": "JACKSON", "state": "1.0", "county": "43213.9125"}}, {"type": "Feature", "geometry": {"type": "Point", "coordinates": [-82.51305, 39.12893]}, "properties": {"name": "18-040188", "address": "nan, WELLSTON PARK RD, WELLSTON, Ohio, 45692.0", "zip": "45692.0", "city": "WELLSTON", "state": "4.0", "county": "43206.8729166667"}}, {"type": "Feature", "geometry": {"type": "Point", "coordinates": [-82.51305, 39.12893]}, "properties": {"name": "18-040188", "address": "nan, WELLSTON PARK RD, WELLSTON, Ohio, 45692.0", "zip": "45692.0", "city": "WELLSTON", "state": "4.0", "county": "43206.8729166667"}}, {"type": "Feature", "geometry": {"type": "Point", "coordinates": [-82.51305, 39.12893]}, "properties": {"name": "18-040188", "address": "nan, WELLSTON PARK RD, WELLSTON, Ohio, 45692.0", "zip": "45692.0", "city": "WELLSTON", "state": "4.0", "county": "43206.8729166667"}}, {"type": "Feature", "geometry": {"type": "Point", "coordinates": [-82.51305, 39.12893]}, "properties": {"name": "18-040188", "address": "nan, WELLSTON PARK RD, WELLSTON, Ohio, 45692.0", "zip": "45692.0", "city": "WELLSTON", "state": "4.0", "county": "43206.8729166667"}}, {"type": "Feature", "geometry": {"type": "Point", "coordinates": [-82.538621, 39.119977]}, "properties": {"name": "18-0472---RZ", "address": "nan, 410 S MICHIGAN AVE, WELLSTON, Ohio, 45692.0", "zip": "45692.0", "city": "WELLSTON", "state": "1.0", "county": "43139.63125"}}, {"type": "Feature", "geometry": {"type": "Point", "coordinates": [-82.538621, 39.119977]}, "properties": {"name": "18-0472---RZ", "address": "nan, 410 S MICHIGAN AVE, WELLSTON, Ohio, 45692.0", "zip": "45692.0", "city": "WELLSTON", "state": "1.0", "county": "43139.63125"}}, {"type": "Feature", "geometry": {"type": "Point", "coordinates": [-82.532938, 39.123405]}, "properties": {"name": "18-060275", "address": "THE STORE, 7 SOUTH PENN, WELLSTON, Ohio, 45692.0", "zip": "45692.0", "city": "WELLSTON", "state": "6.0", "county": "43257.9958333333"}}, {"type": "Feature", "geometry": {"type": "Point", "coordinates": [-82.532938, 39.123405]}, "properties": {"name": "18-060275", "address": "THE STORE, 7 SOUTH PENN, WELLSTON, Ohio, 45692.0", "zip": "45692.0", "city": "WELLSTON", "state": "6.0", "county": "43257.9958333333"}}, {"type": "Feature", "geometry": {"type": "Point", "coordinates": [-82.532938, 39.123405]}, "properties": {"name": "18-060275", "address": "THE STORE, 7 SOUTH PENN, WELLSTON, Ohio, 45692.0", "zip": "45692.0", "city": "WELLSTON", "state": "6.0", "county": "43257.9958333333"}}, {"type": "Feature", "geometry": {"type": "Point", "coordinates": [-82.532938, 39.123405]}, "properties": {"name": "18-060275", "address": "THE STORE, 7 SOUTH PENN, WELLSTON, Ohio, 45692.0", "zip": "45692.0", "city": "WELLSTON", "state": "6.0", "county": "43257.9958333333"}}, {"type": "Feature", "geometry": {"type": "Point", "coordinates": [-82.532938, 39.123405]}, "properties": {"name": "18-060275", "address": "THE STORE, 7 SOUTH PENN, WELLSTON, Ohio, 45692.0", "zip": "45692.0", "city": "WELLSTON", "state": "6.0", "county": "43257.9958333333"}}, {"type": "Feature", "geometry": {"type": "Point", "coordinates": [-82.532938, 39.123405]}, "properties": {"name": "18-060275", "address": "THE STORE, 7 SOUTH PENN, WELLSTON, Ohio, 45692.0", "zip": "45692.0", "city": "WELLSTON", "state": "6.0", "county": "43257.9958333333"}}, {"type": "Feature", "geometry": {"type": "Point", "coordinates": [-82.532938, 39.123405]}, "properties": {"name": "18-060275", "address": "THE STORE, 7 SOUTH PENN, WELLSTON, Ohio, 45692.0", "zip": "45692.0", "city": "WELLSTON", "state": "6.0", "county": "43257.9958333333"}}, {"type": "Feature", "geometry": {"type": "Point", "coordinates": [-82.532938, 39.123405]}, "properties": {"name": "18-060275", "address": "THE STORE, 7 SOUTH PENN, WELLSTON, Ohio, 45692.0", "zip": "45692.0", "city": "WELLSTON", "state": "6.0", "county": "43257.9958333333"}}, {"type": "Feature", "geometry": {"type": "Point", "coordinates": [-82.636554, 39.052017]}, "properties": {"name": "18-0849---05", "address": "MCDONALDS, 588 EAST MAIN ST, JACKSON, Ohio, 45640.0", "zip": "45640.0", "city": "JACKSON", "state": "1.0", "county": "43329.9451388889"}}, {"type": "Feature", "geometry": {"type": "Point", "coordinates": [-82.636554, 39.052017]}, "properties": {"name": "18-0849---05", "address": "MCDONALDS, 588 EAST MAIN ST, JACKSON, Ohio, 45640.0", "zip": "45640.0", "city": "JACKSON", "state": "1.0", "county": "43329.9451388889"}}, {"type": "Feature", "geometry": {"type": "Point", "coordinates": [-82.534715, 39.112705]}, "properties": {"name": "18-100522", "address": "SPEEDWAY, 1219 S. PENNSYLVANIA AVE., WELLSTON, Ohio, 45692.0", "zip": "45692.0", "city": "WELLSTON", "state": "6.0", "county": "43402.9166666667"}}, {"type": "Feature", "geometry": {"type": "Point", "coordinates": [-82.7114488167578, 40.4174201146]}, "properties": {"name": "18-1145---JM", "address": "nan, US RTE 35 AT CO RD 84, JACKSON, Ohio, 45640.0", "zip": "45640.0", "city": "JACKSON", "state": "1.0", "county": "43189.0"}}, {"type": "Feature", "geometry": {"type": "Point", "coordinates": [-82.7114488167578, 40.4174201146]}, "properties": {"name": "18-1145---JM", "address": "nan, US RTE 35 AT CO RD 84, JACKSON, Ohio, 45640.0", "zip": "45640.0", "city": "JACKSON", "state": "1.0", "county": "43189.0"}}, {"type": "Feature", "geometry": {"type": "Point", "coordinates": [-82.7114488167578, 40.4174201146]}, "properties": {"name": "18-1145---JM", "address": "nan, US RTE 35 AT CO RD 84, JACKSON, Ohio, 45640.0", "zip": "45640.0", "city": "JACKSON", "state": "1.0", "county": "43189.0"}}, {"type": "Feature", "geometry": {"type": "Point", "coordinates": [-82.7114488167578, 40.4174201146]}, "properties": {"name": "18-1145---JM", "address": "nan, US RTE 35 AT CO RD 84, JACKSON, Ohio, 45640.0", "zip": "45640.0", "city": "JACKSON", "state": "1.0", "county": "43189.0"}}, {"type": "Feature", "geometry": {"type": "Point", "coordinates": [-82.532938, 39.123405]}, "properties": {"name": "18-1340---RZ", "address": "nan, N WISCONSIN AND W B ST, WELLSTON, Ohio, 45692.0", "zip": "45692.0", "city": "WELLSTON", "state": "1.0", "county": "43202.8743055556"}}, {"type": "Feature", "geometry": {"type": "Point", "coordinates": [-82.636554, 39.052017]}, "properties": {"name": "18-2637---04", "address": "nan, MAIN ST, JACKSON, Ohio, 45640.0", "zip": "45640.0", "city": "JACKSON", "state": "6.0", "county": "43383.0673611111"}}, {"type": "Feature", "geometry": {"type": "Point", "coordinates": [-82.636554, 39.052017]}, "properties": {"name": "18-2637---04", "address": "nan, MAIN ST, JACKSON, Ohio, 45640.0", "zip": "45640.0", "city": "JACKSON", "state": "6.0", "county": "43383.0673611111"}}, {"type": "Feature", "geometry": {"type": "Point", "coordinates": [-82.63708, 39.05056]}, "properties": {"name": "19-00318--00", "address": "nan, 288 PEARL STR., JACKSON, Ohio, 45640.0", "zip": "45640.0", "city": "JACKSON", "state": "1.0", "county": "43483.8131944444"}}, {"type": "Feature", "geometry": {"type": "Point", "coordinates": [-82.63708, 39.05056]}, "properties": {"name": "19-00318--00", "address": "nan, 288 PEARL STR., JACKSON, Ohio, 45640.0", "zip": "45640.0", "city": "JACKSON", "state": "1.0", "county": "43483.8131944444"}}, {"type": "Feature", "geometry": {"type": "Point", "coordinates": [-82.63708, 39.05056]}, "properties": {"name": "19-00318--00", "address": "nan, 288 PEARL STR., JACKSON, Ohio, 45640.0", "zip": "45640.0", "city": "JACKSON", "state": "1.0", "county": "43483.8131944444"}}, {"type": "Feature", "geometry": {"type": "Point", "coordinates": [-82.63708, 39.05056]}, "properties": {"name": "19-00318--00", "address": "nan, 288 PEARL STR., JACKSON, Ohio, 45640.0", "zip": "45640.0", "city": "JACKSON", "state": "1.0", "county": "43483.8131944444"}}, {"type": "Feature", "geometry": {"type": "Point", "coordinates": [-82.63708, 39.05056]}, "properties": {"name": "19-00318--00", "address": "nan, 288 PEARL STR., JACKSON, Ohio, 45640.0", "zip": "45640.0", "city": "JACKSON", "state": "1.0", "county": "43483.8131944444"}}, {"type": "Feature", "geometry": {"type": "Point", "coordinates": [-82.63708, 39.05056]}, "properties": {"name": "19-00318--00", "address": "nan, 288 PEARL STR., JACKSON, Ohio, 45640.0", "zip": "45640.0", "city": "JACKSON", "state": "1.0", "county": "43483.8131944444"}}, {"type": "Feature", "geometry": {"type": "Point", "coordinates": [-82.636554, 39.052017]}, "properties": {"name": "19-00505--00", "address": "FILLING STATION, 214 BRIDGE ST, JACKSON, Ohio, 45640.0", "zip": "45640.0", "city": "JACKSON", "state": "1.0", "county": "43500.7138888889"}}, {"type": "Feature", "geometry": {"type": "Point", "coordinates": [-82.636554, 39.052017]}, "properties": {"name": "19-00505--00", "address": "FILLING STATION, 214 BRIDGE ST, JACKSON, Ohio, 45640.0", "zip": "45640.0", "city": "JACKSON", "state": "1.0", "county": "43500.7138888889"}}, {"type": "Feature", "geometry": {"type": "Point", "coordinates": [-82.636554, 39.052017]}, "properties": {"name": "19-00505--00", "address": "FILLING STATION, 214 BRIDGE ST, JACKSON, Ohio, 45640.0", "zip": "45640.0", "city": "JACKSON", "state": "1.0", "county": "43500.7138888889"}}, {"type": "Feature", "geometry": {"type": "Point", "coordinates": [-82.62259, 39.03156]}, "properties": {"name": "19-01071--00", "address": "WALMART, 100 WALMART DR, JACKSON, Ohio, 45640.0", "zip": "45640.0", "city": "JACKSON", "state": "1.0", "county": "43555.0701388889"}}, {"type": "Feature", "geometry": {"type": "Point", "coordinates": [-82.62259, 39.03156]}, "properties": {"name": "19-01071--00", "address": "WALMART, 100 WALMART DR, JACKSON, Ohio, 45640.0", "zip": "45640.0", "city": "JACKSON", "state": "1.0", "county": "43555.0701388889"}}, {"type": "Feature", "geometry": {"type": "Point", "coordinates": [-82.63598, 39.03267]}, "properties": {"name": "19-01276--00", "address": "JCMC, B 120 TWIN OAKS DR, JACKSON, Ohio, 45640.0", "zip": "45640.0", "city": "JACKSON", "state": "1.0", "county": "43570.6138888889"}}, {"type": "Feature", "geometry": {"type": "Point", "coordinates": [-82.53712, 39.12123]}, "properties": {"name": "19-040157", "address": "PIGGLY WIGGLY GROCERY STORE, 116 W. 2ND ST., WELLSTON, Ohio, 45692.0", "zip": "45692.0", "city": "WELLSTON", "state": "6.0", "county": "43582.8333333333"}}, {"type": "Feature", "geometry": {"type": "Point", "coordinates": [-82.53712, 39.12123]}, "properties": {"name": "19-040157", "address": "PIGGLY WIGGLY GROCERY STORE, 116 W. 2ND ST., WELLSTON, Ohio, 45692.0", "zip": "45692.0", "city": "WELLSTON", "state": "6.0", "county": "43582.8333333333"}}, {"type": "Feature", "geometry": {"type": "Point", "coordinates": [-82.53712, 39.12123]}, "properties": {"name": "19-040157", "address": "PIGGLY WIGGLY GROCERY STORE, 116 W. 2ND ST., WELLSTON, Ohio, 45692.0", "zip": "45692.0", "city": "WELLSTON", "state": "6.0", "county": "43582.8333333333"}}, {"type": "Feature", "geometry": {"type": "Point", "coordinates": [-82.53712, 39.12123]}, "properties": {"name": "19-040157", "address": "PIGGLY WIGGLY GROCERY STORE, 116 W. 2ND ST., WELLSTON, Ohio, 45692.0", "zip": "45692.0", "city": "WELLSTON", "state": "6.0", "county": "43582.8333333333"}}, {"type": "Feature", "geometry": {"type": "Point", "coordinates": [-82.53712, 39.12123]}, "properties": {"name": "19-040157", "address": "PIGGLY WIGGLY GROCERY STORE, 116 W. 2ND ST., WELLSTON, Ohio, 45692.0", "zip": "45692.0", "city": "WELLSTON", "state": "6.0", "county": "43582.8333333333"}}, {"type": "Feature", "geometry": {"type": "Point", "coordinates": [-82.53712, 39.12123]}, "properties": {"name": "19-040157", "address": "PIGGLY WIGGLY GROCERY STORE, 116 W. 2ND ST., WELLSTON, Ohio, 45692.0", "zip": "45692.0", "city": "WELLSTON", "state": "6.0", "county": "43582.8333333333"}}, {"type": "Feature", "geometry": {"type": "Point", "coordinates": [-82.636554, 39.052017]}, "properties": {"name": "19-04081--00", "address": "nan, 8 EAST VINE STREET, JACKSON, Ohio, 45640.0", "zip": "45640.0", "city": "JACKSON", "state": "1.0", "county": "43737.6972222222"}}, {"type": "Feature", "geometry": {"type": "Point", "coordinates": [-82.636554, 39.052017]}, "properties": {"name": "19-04081--00", "address": "nan, 8 EAST VINE STREET, JACKSON, Ohio, 45640.0", "zip": "45640.0", "city": "JACKSON", "state": "1.0", "county": "43737.6972222222"}}, {"type": "Feature", "geometry": {"type": "Point", "coordinates": [-82.636554, 39.052017]}, "properties": {"name": "19-04081--00", "address": "nan, 8 EAST VINE STREET, JACKSON, Ohio, 45640.0", "zip": "45640.0", "city": "JACKSON", "state": "1.0", "county": "43737.6972222222"}}, {"type": "Feature", "geometry": {"type": "Point", "coordinates": [-82.636554, 39.052017]}, "properties": {"name": "19-04081--00", "address": "nan, 8 EAST VINE STREET, JACKSON, Ohio, 45640.0", "zip": "45640.0", "city": "JACKSON", "state": "1.0", "county": "43737.6972222222"}}, {"type": "Feature", "geometry": {"type": "Point", "coordinates": [-82.636554, 39.052017]}, "properties": {"name": "19-04081--00", "address": "nan, 8 EAST VINE STREET, JACKSON, Ohio, 45640.0", "zip": "45640.0", "city": "JACKSON", "state": "1.0", "county": "43737.6972222222"}}, {"type": "Feature", "geometry": {"type": "Point", "coordinates": [-82.636554, 39.052017]}, "properties": {"name": "19-04081--00", "address": "nan, 8 EAST VINE STREET, JACKSON, Ohio, 45640.0", "zip": "45640.0", "city": "JACKSON", "state": "1.0", "county": "43737.6972222222"}}, {"type": "Feature", "geometry": {"type": "Point", "coordinates": [-82.636554, 39.052017]}, "properties": {"name": "19-04081--00", "address": "nan, 8 EAST VINE STREET, JACKSON, Ohio, 45640.0", "zip": "45640.0", "city": "JACKSON", "state": "1.0", "county": "43737.6972222222"}}, {"type": "Feature", "geometry": {"type": "Point", "coordinates": [-82.636554, 39.052017]}, "properties": {"name": "19-04081--00", "address": "nan, 8 EAST VINE STREET, JACKSON, Ohio, 45640.0", "zip": "45640.0", "city": "JACKSON", "state": "1.0", "county": "43737.6972222222"}}, {"type": "Feature", "geometry": {"type": "Point", "coordinates": [-82.636554, 39.052017]}, "properties": {"name": "19-04081--00", "address": "nan, 8 EAST VINE STREET, JACKSON, Ohio, 45640.0", "zip": "45640.0", "city": "JACKSON", "state": "1.0", "county": "43737.6972222222"}}, {"type": "Feature", "geometry": {"type": "Point", "coordinates": [-82.636554, 39.052017]}, "properties": {"name": "19-04081--00", "address": "nan, 8 EAST VINE STREET, JACKSON, Ohio, 45640.0", "zip": "45640.0", "city": "JACKSON", "state": "1.0", "county": "43737.6972222222"}}, {"type": "Feature", "geometry": {"type": "Point", "coordinates": [-82.62259, 39.03156]}, "properties": {"name": "19-04119--02", "address": "WALMART, 100 WALMART DR, JACKSON, Ohio, 45640.0", "zip": "45640.0", "city": "JACKSON", "state": "1.0", "county": "43740.6256944444"}}, {"type": "Feature", "geometry": {"type": "Point", "coordinates": [-82.62259, 39.03156]}, "properties": {"name": "19-04119--02", "address": "WALMART, 100 WALMART DR, JACKSON, Ohio, 45640.0", "zip": "45640.0", "city": "JACKSON", "state": "1.0", "county": "43740.6256944444"}}, {"type": "Feature", "geometry": {"type": "Point", "coordinates": [-80.857307, 41.100058]}, "properties": {"name": "40090-----13", "address": "nan, 199 N. JACKSON ST., OAK HILL, Ohio, 45656.0", "zip": "45656.0", "city": "OAK HILL", "state": "6.0", "county": "41383.9256944444"}}, {"type": "Feature", "geometry": {"type": "Point", "coordinates": [-82.281828, 40.921445]}, "properties": {"name": "CTF14-----19", "address": "nan, nan, nan, Ohio, nan", "zip": "nan", "city": "nan", "state": "1.0", "county": "43525.0"}}, {"type": "Feature", "geometry": {"type": "Point", "coordinates": [-82.281828, 40.921445]}, "properties": {"name": "CTF22-----19", "address": "nan, nan, nan, Ohio, nan", "zip": "nan", "city": "nan", "state": "1.0", "county": "43696.0"}}, {"type": "Feature", "geometry": {"type": "Point", "coordinates": [-82.281828, 40.921445]}, "properties": {"name": "CTF22-----19", "address": "nan, nan, nan, Ohio, nan", "zip": "nan", "city": "nan", "state": "1.0", "county": "43696.0"}}, {"type": "Feature", "geometry": {"type": "Point", "coordinates": [-82.281828, 40.921445]}, "properties": {"name": "CTF22-----19", "address": "nan, nan, nan, Ohio, nan", "zip": "nan", "city": "nan", "state": "1.0", "county": "43696.0"}}]}