{
  "type": "Feature",
  "features": [
{"type": "Feature","properties": {"NAME1":"ACCU-BIL MANAGEMENT LLC","NPI":"1295738359","STREET1":"3070 PRESIDENTIAL DR","STREET2":"SUITE 250","CITY":"FAIRBORN","STATE":"OH","ZIP":"45324","CATEGORY":"NPPES"},"geometry": {"type": "Point","coordinates": [-84.064894,39.776047]}},
{"type": "Feature","properties": {"NAME1":"FAMILY PRACTICE CENTER OF WESTERVILLE, INC","NPI":"1588666887","STREET1":"190 S STATE ST","STREET2":"STE A","CITY":"WESTERVILLE","STATE":"OH","ZIP":"43081","CATEGORY":"NPPES"},"geometry": {"type": "Point","coordinates": [-82.932576,40.131055]}},
{"type": "Feature","properties": {"NAME1":"ORTHOPAEDIC PHYSICAL THERAPY AND ASSOCIATES INC.","NPI":"1255335048","STREET1":"1200 GLENDALE MILFORD RD","STREET2":"","CITY":"CINCINNATI","STATE":"OH","ZIP":"45215","CATEGORY":"NPPES"},"geometry": {"type": "Point","coordinates": [-84.454991,39.257181]}},
{"type": "Feature","properties": {"NAME1":"CHILDREN'S HOME CARE GROUP","NPI":"1770587446","STREET1":"185 W CEDAR ST","STREET2":"","CITY":"AKRON","STATE":"OH","ZIP":"44307","CATEGORY":"NPPES"},"geometry": {"type": "Point","coordinates": [-81.528871,41.07805]}},
{"type": "Feature","properties": {"NAME1":"ELIZA JENNINGS HOME","NPI":"1609870138","STREET1":"10603 DETROIT AVE","STREET2":"","CITY":"CLEVELAND","STATE":"OH","ZIP":"44102","CATEGORY":"NPPES"},"geometry": {"type": "Point","coordinates": [-81.760862,41.480688]}},
{"type": "Feature","properties": {"NAME1":"LIMA MEMORIAL JOINT OPERATING COMPANY","NPI":"1245235142","STREET1":"1001 BELLEFONTAINE AVE","STREET2":"","CITY":"LIMA","STATE":"OH","ZIP":"45804","CATEGORY":"NPPES"},"geometry": {"type": "Point","coordinates": [-84.087582,40.735877]}},
{"type": "Feature","properties": {"NAME1":"LIMA MEMORIAL JOINT OPERATING COMPANY","NPI":"1205831112","STREET1":"1001 BELLEFONTAINE AVE","STREET2":"","CITY":"LIMA","STATE":"OH","ZIP":"45804","CATEGORY":"NPPES"},"geometry": {"type": "Point","coordinates": [-84.087582,40.735877]}},
{"type": "Feature","properties": {"NAME1":"LIMA MEMORIAL JOINT OPERATING COMPANY","NPI":"1356347660","STREET1":"200 SAINT CLAIR AVE","STREET2":"","CITY":"ST MARYS","STATE":"OH","ZIP":"45885","CATEGORY":"NPPES"},"geometry": {"type": "Point","coordinates": [-84.370447,40.544224]}},
{"type": "Feature","properties": {"NAME1":"LIMA MEMORIAL JOINT OPERATING COMPANY","NPI":"1912903014","STREET1":"1001 BELLEFONTAINE AVE","STREET2":"","CITY":"LIMA","STATE":"OH","ZIP":"45804","CATEGORY":"NPPES"},"geometry": {"type": "Point","coordinates": [-84.087582,40.735877]}},
{"type": "Feature","properties": {"NAME1":"LIMA MEMORIAL JOINT OPERATING COMPANY","NPI":"1578569588","STREET1":"1001 BELLEFONTAINE AVE","STREET2":"","CITY":"LIMA","STATE":"OH","ZIP":"45804","CATEGORY":"NPPES"},"geometry": {"type": "Point","coordinates": [-84.087582,40.735877]}},
{"type": "Feature","properties": {"NAME1":"THE CITY HOSPITAL ASSOCIATION","NPI":"1750387429","STREET1":"425 W FIFTH ST","STREET2":"","CITY":"EAST LIVERPOOL","STATE":"OH","ZIP":"43920","CATEGORY":"NPPES"},"geometry": {"type": "Point","coordinates": [-80.585657,40.621365]}},
{"type": "Feature","properties": {"NAME1":"B&K HOME MEDICAL SERVICES, INC.","NPI":"1831195494","STREET1":"123 N SANDUSKY AVE","STREET2":"","CITY":"BUCYRUS","STATE":"OH","ZIP":"44820","CATEGORY":"NPPES"},"geometry": {"type": "Point","coordinates": [-82.975803,40.809307]}},
{"type": "Feature","properties": {"NAME1":"FLOWER HOSPITAL","NPI":"1982601456","STREET1":"5200 HARROUN RD","STREET2":"","CITY":"SYLVANIA","STATE":"OH","ZIP":"43560","CATEGORY":"NPPES"},"geometry": {"type": "Point","coordinates": [-83.690865,41.708141]}},
{"type": "Feature","properties": {"NAME1":"AMERICAN HOME HEALTH SERVICES, INC","NPI":"1316945033","STREET1":"159 CROCKER PARK BLVD","STREET2":"SUITE 400","CITY":"WESTLAKE","STATE":"OH","ZIP":"44145","CATEGORY":"NPPES"},"geometry": {"type": "Point","coordinates": [-81.950953,41.459235]}},
{"type": "Feature","properties": {"NAME1":"NATIONWIDE CHILDREN'S HOSPITAL HOMECARE","NPI":"1417955170","STREET1":"255 E MAIN ST","STREET2":"","CITY":"COLUMBUS","STATE":"OH","ZIP":"43215","CATEGORY":"NPPES"},"geometry": {"type": "Point","coordinates": [-82.992818,39.956583]}},
{"type": "Feature","properties": {"NAME1":"NOBLE COUNTY","NPI":"1528065307","STREET1":"44069 MARIETTA RD","STREET2":"","CITY":"CALDWELL","STATE":"OH","ZIP":"43724","CATEGORY":"NPPES"},"geometry": {"type": "Point","coordinates": [-81.521927,39.735907]}},
{"type": "Feature","properties": {"NAME1":"SKILLED CARE PHARMACY LLC","NPI":"1063410504","STREET1":"6175 HI TEK COURT","STREET2":"","CITY":"MASON","STATE":"OH","ZIP":"45040","CATEGORY":"NPPES"},"geometry": {"type": "Point","coordinates": [-84.333971,39.339801]}},
{"type": "Feature","properties": {"NAME1":"VALLEY SURGICAL CENTER LTD","NPI":"1538167978","STREET1":"2323 SUNSET BLVD","STREET2":"","CITY":"STEUBENVILLE","STATE":"OH","ZIP":"43952","CATEGORY":"NPPES"},"geometry": {"type": "Point","coordinates": [-80.645136,40.370809]}},
{"type": "Feature","properties": {"NAME1":"INDEPENDENCE CARE COMMUNITY INC","NPI":"1689673295","STREET1":"1000 INDEPENDENCE RD","STREET2":"","CITY":"FOSTORIA","STATE":"OH","ZIP":"44830","CATEGORY":"NPPES"},"geometry": {"type": "Point","coordinates": [-83.43093,41.148149]}},
{"type": "Feature","properties": {"NAME1":"SEELEY MEDICAL OXYGEN CO OF ANDOVER","NPI":"1073513891","STREET1":"7515 W RIDGE RD","STREET2":"","CITY":"ELYRIA","STATE":"OH","ZIP":"44035","CATEGORY":"NPPES"},"geometry": {"type": "Point","coordinates": [-82.164819,41.387306]}},
{"type": "Feature","properties": {"NAME1":"DEFIANCE HOSPITAL INC.","NPI":"1598765000","STREET1":"1200 RALSTON AVE","STREET2":"","CITY":"DEFIANCE","STATE":"OH","ZIP":"43512","CATEGORY":"NPPES"},"geometry": {"type": "Point","coordinates": [-84.373734,41.299015]}},
{"type": "Feature","properties": {"NAME1":"RV BRUNNER INC","NPI":"1598765174","STREET1":"8444 MENTOR AVENUE","STREET2":"","CITY":"MENTOR","STATE":"OH","ZIP":"44060","CATEGORY":"NPPES"},"geometry": {"type": "Point","coordinates": [-81.338516,41.66669]}},
{"type": "Feature","properties": {"NAME1":"BAY PARK COMMUNITY HOSPITAL","NPI":"1295735330","STREET1":"2801 BAY PARK DR","STREET2":"","CITY":"OREGON","STATE":"OH","ZIP":"43616","CATEGORY":"NPPES"},"geometry": {"type": "Point","coordinates": [-83.480169,41.620154]}},
{"type": "Feature","properties": {"NAME1":"BAY PARK COMMUNITY HOSPITAL","NPI":"1598765539","STREET1":"2801 BAY PARK DR","STREET2":"","CITY":"OREGON","STATE":"OH","ZIP":"43616","CATEGORY":"NPPES"},"geometry": {"type": "Point","coordinates": [-83.480169,41.620154]}},
{"type": "Feature","properties": {"NAME1":"FOSTORIA HOSPITAL ASSOCIATION","NPI":"1275533226","STREET1":"501 VAN BUREN ST","STREET2":"","CITY":"FOSTORIA","STATE":"OH","ZIP":"44830","CATEGORY":"NPPES"},"geometry": {"type": "Point","coordinates": [-83.424165,41.163078]}},
{"type": "Feature","properties": {"NAME1":"FOSTORIA COMMUNITY HOSPITAL","NPI":"1548260581","STREET1":"501 VAN BUREN ST","STREET2":"","CITY":"FOSTORIA","STATE":"OH","ZIP":"44830","CATEGORY":"NPPES"},"geometry": {"type": "Point","coordinates": [-83.424165,41.163078]}},
{"type": "Feature","properties": {"NAME1":"FOSTORIA HOSPITAL ASSOCIATION","NPI":"1659371615","STREET1":"501 VAN BUREN ST","STREET2":"","CITY":"FOSTORIA","STATE":"OH","ZIP":"44830","CATEGORY":"NPPES"},"geometry": {"type": "Point","coordinates": [-83.424165,41.163078]}},
{"type": "Feature","properties": {"NAME1":"FLOWER HOSPITAL","NPI":"1154321115","STREET1":"5200 HARROUN RD","STREET2":"","CITY":"SYLVANIA","STATE":"OH","ZIP":"43560","CATEGORY":"NPPES"},"geometry": {"type": "Point","coordinates": [-83.690865,41.708141]}},
{"type": "Feature","properties": {"NAME1":"DEFIANCE HOSPITAL INC.","NPI":"1699775726","STREET1":"1200 RALSTON AVE","STREET2":"","CITY":"DEFIANCE","STATE":"OH","ZIP":"43512","CATEGORY":"NPPES"},"geometry": {"type": "Point","coordinates": [-84.373734,41.299015]}},
{"type": "Feature","properties": {"NAME1":"DEFIANCE REGIONAL MEDICAL CENTER","NPI":"1528068665","STREET1":"1200 RALSTON AVE","STREET2":"","CITY":"DEFIANCE","STATE":"OH","ZIP":"43512","CATEGORY":"NPPES"},"geometry": {"type": "Point","coordinates": [-84.373734,41.299015]}},
{"type": "Feature","properties": {"NAME1":"THE TOLEDO HOSPITAL","NPI":"1841290863","STREET1":"2142 N. COVE BLVD.","STREET2":"","CITY":"TOLEDO","STATE":"OH","ZIP":"43606","CATEGORY":"NPPES"},"geometry": {"type": "Point","coordinates": [-83.595264,41.673295]}},
{"type": "Feature","properties": {"NAME1":"THE TOLEDO HOSPITAL","NPI":"1013918937","STREET1":"2142 N. COVE","STREET2":"","CITY":"TOLEDO","STATE":"OH","ZIP":"43606","CATEGORY":"NPPES"},"geometry": {"type": "Point","coordinates": [-83.595264,41.673295]}},
{"type": "Feature","properties": {"NAME1":"VILLAGE OF POWHATAN POINT","NPI":"1467453175","STREET1":"104 MELLOTT ST","STREET2":"","CITY":"POWHATAN POINT","STATE":"OH","ZIP":"43942","CATEGORY":"NPPES"},"geometry": {"type": "Point","coordinates": [-80.805969,39.86363]}},
{"type": "Feature","properties": {"NAME1":"OR & W FIRE DISTRICT","NPI":"1306847017","STREET1":"4210 CENTRAL AVE","STREET2":"","CITY":"SHADYSIDE","STATE":"OH","ZIP":"43947","CATEGORY":"NPPES"},"geometry": {"type": "Point","coordinates": [-80.751692,39.969888]}},
{"type": "Feature","properties": {"NAME1":"YOUNGSTOWN COMMITTEE ON ALCOHOLISM","NPI":"1669474037","STREET1":"5211 MAHONING AVE STE 370","STREET2":"","CITY":"AUSTINTOWN","STATE":"OH","ZIP":"44515","CATEGORY":"NPPES"},"geometry": {"type": "Point","coordinates": [-80.756203,41.098972]}},
{"type": "Feature","properties": {"NAME1":"YOUNGSTOWN COMMITTEE ON ALCOHOLISM","NPI":"1033111406","STREET1":"2151 RUSH BLVD","STREET2":"","CITY":"YOUNGSTOWN","STATE":"OH","ZIP":"44507","CATEGORY":"NPPES"},"geometry": {"type": "Point","coordinates": [-80.649141,41.079189]}},
{"type": "Feature","properties": {"NAME1":"DAYTON RADIOLOGY ASSOCIATES INC","NPI":"1538152194","STREET1":"1479 W MAIN ST","STREET2":"","CITY":"TIPP CITY","STATE":"OH","ZIP":"45371","CATEGORY":"NPPES"},"geometry": {"type": "Point","coordinates": [-84.197707,39.962755]}},
{"type": "Feature","properties": {"NAME1":"DAYTON RADIOLOGY ASSOCIATES INC","NPI":"1861485278","STREET1":"2591 MIAMISBURG CENTERVILLE RD","STREET2":"","CITY":"CENTERVILLE","STATE":"OH","ZIP":"45459","CATEGORY":"NPPES"},"geometry": {"type": "Point","coordinates": [-84.216592,39.636183]}},
{"type": "Feature","properties": {"NAME1":"AMERICAN NURSING CARE, INC.","NPI":"1780678151","STREET1":"81 ROBIN HOOD LN","STREET2":"SUITE A","CITY":"TROY","STATE":"OH","ZIP":"45373","CATEGORY":"NPPES"},"geometry": {"type": "Point","coordinates": [-84.194054,40.052134]}},
{"type": "Feature","properties": {"NAME1":"AMERICAN NURSING CARE, INC.","NPI":"1174517569","STREET1":"1206 BRANDYWINE BLVD STE A","STREET2":"","CITY":"ZANESVILLE","STATE":"OH","ZIP":"43701","CATEGORY":"NPPES"},"geometry": {"type": "Point","coordinates": [-82.022496,39.984528]}},
{"type": "Feature","properties": {"NAME1":"AMERICAN NURSING CARE INC","NPI":"1306830773","STREET1":"658 W MARKET ST","STREET2":"SUITE 200","CITY":"LIMA","STATE":"OH","ZIP":"45801","CATEGORY":"NPPES"},"geometry": {"type": "Point","coordinates": [-84.115564,40.740134]}},
{"type": "Feature","properties": {"NAME1":"AMERICAN NURSING CARE, INC.","NPI":"1356335723","STREET1":"1065 DELAWARE AVE","STREET2":"SUITE B","CITY":"MARION","STATE":"OH","ZIP":"43302","CATEGORY":"NPPES"},"geometry": {"type": "Point","coordinates": [-83.123996,40.570446]}},
{"type": "Feature","properties": {"NAME1":"HEALTH SERVICES OF WYANDOT COUNTY, INC.","NPI":"1518951870","STREET1":"105 HOUPT DR","STREET2":"","CITY":"UPPER SANDUSKY","STATE":"OH","ZIP":"43351","CATEGORY":"NPPES"},"geometry": {"type": "Point","coordinates": [-83.283266,40.839836]}},
{"type": "Feature","properties": {"NAME1":"LAKE COUNTY PAIN & DIAGNOSTIC","NPI":"1497740617","STREET1":"8401 MENTOR AVE","STREET2":"STE A","CITY":"MENTOR","STATE":"OH","ZIP":"44060","CATEGORY":"NPPES"},"geometry": {"type": "Point","coordinates": [-81.339162,41.666808]}},
{"type": "Feature","properties": {"NAME1":"TOLEDO CLINIC INCORPORATED","NPI":"1457346462","STREET1":"1414 S BYRNE RD","STREET2":"","CITY":"TOLEDO","STATE":"OH","ZIP":"43614","CATEGORY":"NPPES"},"geometry": {"type": "Point","coordinates": [-83.62594,41.613837]}},
{"type": "Feature","properties": {"NAME1":"TOLEDO DISTRICT NURSE ASSOCIATION","NPI":"1992790679","STREET1":"1946 N 13TH ST","STREET2":"","CITY":"TOLEDO","STATE":"OH","ZIP":"43604","CATEGORY":"NPPES"},"geometry": {"type": "Point","coordinates": [-83.540893,41.660117]}},
{"type": "Feature","properties": {"NAME1":"PORTAGE COUNTY BOARD OF DEVELOPMENTAL DISABILIT","NPI":"1639164205","STREET1":"7008 STATE ROUTE 88","STREET2":"","CITY":"RAVENNA","STATE":"OH","ZIP":"44266","CATEGORY":"NPPES"},"geometry": {"type": "Point","coordinates": [-81.22489,41.181074]}},
{"type": "Feature","properties": {"NAME1":"HUBER MEDICAL LLC","NPI":"1346236635","STREET1":"8051 MARKET ST","STREET2":"SUITE 2","CITY":"BOARDMAN","STATE":"OH","ZIP":"44512","CATEGORY":"NPPES"},"geometry": {"type": "Point","coordinates": [-80.661991,41.004682]}},
{"type": "Feature","properties": {"NAME1":"UNIVERSITY OF TOLEDO PHYSICIANS LLC","NPI":"1942296033","STREET1":"3355 GLENDALE AVE","STREET2":"3RD FLOOR","CITY":"TOLEDO","STATE":"OH","ZIP":"43614","CATEGORY":"NPPES"},"geometry": {"type": "Point","coordinates": [-83.622924,41.612032]}},
{"type": "Feature","properties": {"NAME1":"OHIO LIVING COMMUNITIES","NPI":"1366438343","STREET1":"1701 LLANFAIR AVE","STREET2":"","CITY":"CINCINNATI","STATE":"OH","ZIP":"45224","CATEGORY":"NPPES"},"geometry": {"type": "Point","coordinates": [-84.549049,39.196233]}},
{"type": "Feature","properties": {"NAME1":"OHIO LIVING COMMUNITIES","NPI":"1366438368","STREET1":"1150 W MARKET ST","STREET2":"","CITY":"AKRON","STATE":"OH","ZIP":"44313","CATEGORY":"NPPES"},"geometry": {"type": "Point","coordinates": [-81.553238,41.101575]}},
{"type": "Feature","properties": {"NAME1":"ELIZA BRYANT VILLAGE","NPI":"1366438145","STREET1":"7201 WADE PARK AVE","STREET2":"","CITY":"CLEVELAND","STATE":"OH","ZIP":"44103","CATEGORY":"NPPES"},"geometry": {"type": "Point","coordinates": [-81.637818,41.516305]}},
{"type": "Feature","properties": {"NAME1":"KCI USA, INC.","NPI":"1649267774","STREET1":"6751 ENGLE RD","STREET2":"STE K","CITY":"MIDDLEBURG HEIGHTS","STATE":"OH","ZIP":"44130","CATEGORY":"NPPES"},"geometry": {"type": "Point","coordinates": [-81.821266,41.383854]}},
{"type": "Feature","properties": {"NAME1":"CEI PHYSICIANS P.S.C., LLC","NPI":"1790772804","STREET1":"1945 CEI DRIVE","STREET2":"","CITY":"CINCINNATI","STATE":"OH","ZIP":"45242","CATEGORY":"NPPES"},"geometry": {"type": "Point","coordinates": [-84.384951,39.24276]}},
{"type": "Feature","properties": {"NAME1":"LEVERING MANAGEMENT, INC.","NPI":"1255328050","STREET1":"195 EXECUTIVE DR","STREET2":"","CITY":"MARION","STATE":"OH","ZIP":"43302","CATEGORY":"NPPES"},"geometry": {"type": "Point","coordinates": [-83.126735,40.569953]}},
{"type": "Feature","properties": {"NAME1":"LIFECARE HOSPICE","NPI":"1477540284","STREET1":"1900 AKRON RD","STREET2":"","CITY":"WOOSTER","STATE":"OH","ZIP":"44691","CATEGORY":"NPPES"},"geometry": {"type": "Point","coordinates": [-81.907903,40.82364]}},
{"type": "Feature","properties": {"NAME1":"FIRELANDS REGIONAL MEDICAL CENTER","NPI":"1134117849","STREET1":"1031 PIERCE ST","STREET2":"SUITE B","CITY":"SANDUSKY","STATE":"OH","ZIP":"44870","CATEGORY":"NPPES"},"geometry": {"type": "Point","coordinates": [-82.716209,41.437928]}},
{"type": "Feature","properties": {"NAME1":"LEVERING MANAGEMENT, INC.","NPI":"1447248927","STREET1":"115 NORTH PORTLAND STREET","STREET2":"","CITY":"FREDERICKTOWN","STATE":"OH","ZIP":"43019","CATEGORY":"NPPES"},"geometry": {"type": "Point","coordinates": [-82.544066,40.480884]}},
{"type": "Feature","properties": {"NAME1":"WORTHINGTON TOWNSHIP","NPI":"1023006483","STREET1":"20 W ELM ST","STREET2":"","CITY":"BUTLER","STATE":"OH","ZIP":"44822","CATEGORY":"NPPES"},"geometry": {"type": "Point","coordinates": [-82.42619,40.588685]}},
{"type": "Feature","properties": {"NAME1":"RONCI FAMILY DISCOUNT DRUG","NPI":"1073501144","STREET1":"2249 LISBON ST","STREET2":"","CITY":"EAST LIVERPOOL","STATE":"OH","ZIP":"43920","CATEGORY":"NPPES"},"geometry": {"type": "Point","coordinates": [-80.597647,40.645498]}},
{"type": "Feature","properties": {"NAME1":"RONCI FAMILY DISCOUNT DRUGS,INC","NPI":"1669460747","STREET1":"3307 CANFIELD RD","STREET2":"","CITY":"YOUNGSTOWN","STATE":"OH","ZIP":"44511","CATEGORY":"NPPES"},"geometry": {"type": "Point","coordinates": [-80.707488,41.062763]}},
{"type": "Feature","properties": {"NAME1":"KCI USA INC.","NPI":"1619965761","STREET1":"5762 WESTBOURNE AVE","STREET2":"","CITY":"COLUMBUS","STATE":"OH","ZIP":"43213","CATEGORY":"NPPES"},"geometry": {"type": "Point","coordinates": [-82.84616,39.984515]}},
{"type": "Feature","properties": {"NAME1":"COUNTY OF SENECA OHIO COUNTY OFFICE OF AUDITOR","NPI":"1508855388","STREET1":"126 HOPEWELL AVE","STREET2":"","CITY":"TIFFIN","STATE":"OH","ZIP":"44883","CATEGORY":"NPPES"},"geometry": {"type": "Point","coordinates": [-83.201329,41.107934]}},
{"type": "Feature","properties": {"NAME1":"PLANNED PARENTHOOD OF GREATER OHIO","NPI":"1760471452","STREET1":"384 PARK AVE W","STREET2":"","CITY":"MANSFIELD","STATE":"OH","ZIP":"44906","CATEGORY":"NPPES"},"geometry": {"type": "Point","coordinates": [-82.52979,40.759035]}},
{"type": "Feature","properties": {"NAME1":"FOSTORIA HOSPITAL ASSOCIATION","NPI":"1912997818","STREET1":"501 VAN BUREN ST","STREET2":"","CITY":"FOSTORIA","STATE":"OH","ZIP":"44830","CATEGORY":"NPPES"},"geometry": {"type": "Point","coordinates": [-83.424165,41.163078]}},
{"type": "Feature","properties": {"NAME1":"SHELBY COUNTY MEMORIAL HOSPITAL ASSOCIATION","NPI":"1124018585","STREET1":"915 MICHIGAN ST","STREET2":"","CITY":"SIDNEY","STATE":"OH","ZIP":"45365","CATEGORY":"NPPES"},"geometry": {"type": "Point","coordinates": [-84.171653,40.287863]}},
{"type": "Feature","properties": {"NAME1":"CARDIOLOGY ASSOCIATES OF CINCINNATI, INC.","NPI":"1972593234","STREET1":"3219 CLIFTON AVE","STREET2":"SUITE 400","CITY":"CINCINNATI","STATE":"OH","ZIP":"45220","CATEGORY":"NPPES"},"geometry": {"type": "Point","coordinates": [-84.519968,39.140509]}},
{"type": "Feature","properties": {"NAME1":"ABBEYVILLE HOUSE","NPI":"1235129586","STREET1":"2525 ABBEYVILLE RD","STREET2":"","CITY":"VALLEY CITY","STATE":"OH","ZIP":"44280","CATEGORY":"NPPES"},"geometry": {"type": "Point","coordinates": [-81.892897,41.205495]}},
{"type": "Feature","properties": {"NAME1":"THE JEWISH FEDERATION OF GREATER DAYTON","NPI":"1235120361","STREET1":"4911 COVENANT HOUSE DR","STREET2":"","CITY":"DAYTON","STATE":"OH","ZIP":"45426","CATEGORY":"NPPES"},"geometry": {"type": "Point","coordinates": [-84.280389,39.81433]}},
{"type": "Feature","properties": {"NAME1":"MORROW COUNTY HOSPITAL HOME HEALTH","NPI":"1396736450","STREET1":"651 W MARION RD","STREET2":"","CITY":"MOUNT GILEAD","STATE":"OH","ZIP":"43338","CATEGORY":"NPPES"},"geometry": {"type": "Point","coordinates": [-82.849184,40.549133]}},
{"type": "Feature","properties": {"NAME1":"NORTHEAST PROFESSIONAL HOME CARE, INC.","NPI":"1184615148","STREET1":"4580 STEPHEN CIR NW STE 301","STREET2":"","CITY":"CANTON","STATE":"OH","ZIP":"44718","CATEGORY":"NPPES"},"geometry": {"type": "Point","coordinates": [-81.437533,40.847521]}},
{"type": "Feature","properties": {"NAME1":"FAMILY PLANNING ASSOCIATION OF NORTHEAST OHIO, INC.","NPI":"1033100888","STREET1":"54 S STATE ST","STREET2":"SUITE 203","CITY":"PAINESVILLE","STATE":"OH","ZIP":"44077","CATEGORY":"NPPES"},"geometry": {"type": "Point","coordinates": [-81.24171,41.727062]}},
{"type": "Feature","properties": {"NAME1":"HOPEWELL HEALTH CENTERS INC","NPI":"1497746101","STREET1":"31891 STATE ROUTE 93","STREET2":"","CITY":"MC ARTHUR","STATE":"OH","ZIP":"45651","CATEGORY":"NPPES"},"geometry": {"type": "Point","coordinates": [-82.477116,39.261992]}},
{"type": "Feature","properties": {"NAME1":"HOPEWELL HEALTH CENTERS INC","NPI":"1255322962","STREET1":"2541 PANTHER DR","STREET2":"","CITY":"NEW LEXINGTON","STATE":"OH","ZIP":"43764","CATEGORY":"NPPES"},"geometry": {"type": "Point","coordinates": [-82.208866,39.726306]}},
{"type": "Feature","properties": {"NAME1":"HOPEWELL HEALTH CENTERS INC","NPI":"1669463360","STREET1":"30381 CHIEFTAIN DRIVE","STREET2":"","CITY":"LOGAN","STATE":"OH","ZIP":"43138","CATEGORY":"NPPES"},"geometry": {"type": "Point","coordinates": [-82.454577,39.555885]}},
{"type": "Feature","properties": {"NAME1":"HOPEWELL HEALTH CENTERS INC","NPI":"1659362374","STREET1":"1950 MOUNT SAINT MARYS DR","STREET2":"","CITY":"NELSONVILLE","STATE":"OH","ZIP":"45764","CATEGORY":"NPPES"},"geometry": {"type": "Point","coordinates": [-82.23182,39.45868]}},
{"type": "Feature","properties": {"NAME1":"ZANDEX HEALTH CARE CORPORATION","NPI":"1063403582","STREET1":"1280 FRIENDSHIP DR","STREET2":"","CITY":"NEW CONCORD","STATE":"OH","ZIP":"43762","CATEGORY":"NPPES"},"geometry": {"type": "Point","coordinates": [-81.744152,40.005151]}},
{"type": "Feature","properties": {"NAME1":"HARTVILLE INTERNAL MEDICINE PA","NPI":"1689665044","STREET1":"200 CAROLYN CT","STREET2":"","CITY":"MINERVA","STATE":"OH","ZIP":"44657","CATEGORY":"NPPES"},"geometry": {"type": "Point","coordinates": [-81.111898,40.719926]}},
{"type": "Feature","properties": {"NAME1":"HARTVILLE INTERNAL MEDICINE PA","NPI":"1518948702","STREET1":"855 W MAPLE ST","STREET2":"SUITE 130","CITY":"HARTVILLE","STATE":"OH","ZIP":"44632","CATEGORY":"NPPES"},"geometry": {"type": "Point","coordinates": [-81.345397,40.969557]}},
{"type": "Feature","properties": {"NAME1":"BAZETTA TOWNSHIP TRUSTEES","NPI":"1902888290","STREET1":"773 EVERETT HULL RD","STREET2":"","CITY":"CORTLAND","STATE":"OH","ZIP":"44410","CATEGORY":"NPPES"},"geometry": {"type": "Point","coordinates": [-80.793323,41.330204]}},
{"type": "Feature","properties": {"NAME1":"OHIOHEALTH BERGER HOSPITAL LLC","NPI":"1326020447","STREET1":"600 N PICKAWAY ST","STREET2":"","CITY":"CIRCLEVILLE","STATE":"OH","ZIP":"43113","CATEGORY":"NPPES"},"geometry": {"type": "Point","coordinates": [-82.937402,39.610964]}},
{"type": "Feature","properties": {"NAME1":"HOMEREACH","NPI":"1124000161","STREET1":"444 W UNION ST","STREET2":"SUITE C","CITY":"ATHENS","STATE":"OH","ZIP":"45701","CATEGORY":"NPPES"},"geometry": {"type": "Point","coordinates": [-82.122555,39.331521]}},
{"type": "Feature","properties": {"NAME1":"HEALTH SERVICES OF WYANDOT COUNTY, INC.","NPI":"1194707786","STREET1":"105 HOUPT DR","STREET2":"","CITY":"UPPER SANDUSKY","STATE":"OH","ZIP":"43351","CATEGORY":"NPPES"},"geometry": {"type": "Point","coordinates": [-83.283266,40.839836]}},
{"type": "Feature","properties": {"NAME1":"HOMEREACH","NPI":"1295718567","STREET1":"444 W UNION ST","STREET2":"","CITY":"ATHENS","STATE":"OH","ZIP":"45701","CATEGORY":"NPPES"},"geometry": {"type": "Point","coordinates": [-82.122555,39.331521]}},
{"type": "Feature","properties": {"NAME1":"HILTY MEMORIAL HOME","NPI":"1538142997","STREET1":"304 HILTY DR","STREET2":"","CITY":"PANDORA","STATE":"OH","ZIP":"45877","CATEGORY":"NPPES"},"geometry": {"type": "Point","coordinates": [-83.968341,40.950082]}},
{"type": "Feature","properties": {"NAME1":"UNITED CHURCH HOMES, INC","NPI":"1144203449","STREET1":"215 SETH AVE","STREET2":"","CITY":"JACKSON","STATE":"OH","ZIP":"45640","CATEGORY":"NPPES"},"geometry": {"type": "Point","coordinates": [-82.575358,39.074412]}},
{"type": "Feature","properties": {"NAME1":"UNITED CHURCH HOMES, INC.","NPI":"1760465884","STREET1":"3218 INDIAN RIPPLE RD","STREET2":"","CITY":"BEAVERCREEK","STATE":"OH","ZIP":"45440","CATEGORY":"NPPES"},"geometry": {"type": "Point","coordinates": [-84.054643,39.692682]}},
{"type": "Feature","properties": {"NAME1":"UNITED CHURCH HOMES, INC.","NPI":"1528041647","STREET1":"789 STONEYBROOK TRL","STREET2":"","CITY":"FAIRBORN","STATE":"OH","ZIP":"45324","CATEGORY":"NPPES"},"geometry": {"type": "Point","coordinates": [-83.976692,39.833885]}},
{"type": "Feature","properties": {"NAME1":"LEVERING MANAGEMENT, INC.","NPI":"1174506075","STREET1":"70 WINCHESTER RD","STREET2":"","CITY":"MANSFIELD","STATE":"OH","ZIP":"44907","CATEGORY":"NPPES"},"geometry": {"type": "Point","coordinates": [-82.511135,40.736472]}},
{"type": "Feature","properties": {"NAME1":"THE EVANGELICAL LUTHERAN GOOD SAMARITAN SOCIETY","NPI":"1225012974","STREET1":"100 POWELL DR","STREET2":"","CITY":"ARLINGTON","STATE":"OH","ZIP":"45814","CATEGORY":"NPPES"},"geometry": {"type": "Point","coordinates": [-83.660637,40.89185]}},
{"type": "Feature","properties": {"NAME1":"TRILOGY HEALTHCARE OF GREENVILLE, LLC","NPI":"1861476442","STREET1":"1315 KITCHEN AID WAY","STREET2":"","CITY":"GREENVILLE","STATE":"OH","ZIP":"45331","CATEGORY":"NPPES"},"geometry": {"type": "Point","coordinates": [-84.613038,40.122184]}},
{"type": "Feature","properties": {"NAME1":"HAYAT ALI DDS INC","NPI":"1407831084","STREET1":"3284 W 117TH","STREET2":"","CITY":"CLEVELAND","STATE":"OH","ZIP":"44111","CATEGORY":"NPPES"},"geometry": {"type": "Point","coordinates": [-81.769262,41.46294]}},
{"type": "Feature","properties": {"NAME1":"HOSPICE OF CINCINNATI INCORPORATED","NPI":"1598740011","STREET1":"4310 COOPER RD","STREET2":"SUITE 300","CITY":"CINCINNATI","STATE":"OH","ZIP":"45242","CATEGORY":"NPPES"},"geometry": {"type": "Point","coordinates": [-84.389416,39.238988]}},
{"type": "Feature","properties": {"NAME1":"FORT WAYNE CARDIOLOGY CORPORATION","NPI":"1730165242","STREET1":"208 COLUMBUS ST","STREET2":"","CITY":"HICKSVILLE","STATE":"OH","ZIP":"43526","CATEGORY":"NPPES"},"geometry": {"type": "Point","coordinates": [-84.756378,41.3008]}},
{"type": "Feature","properties": {"NAME1":"FORT WAYNE CARDIOLOGY CORPORATION","NPI":"1669458733","STREET1":"11558 SR 111","STREET2":"","CITY":"PAULDING","STATE":"OH","ZIP":"45879","CATEGORY":"NPPES"},"geometry": {"type": "Point","coordinates": [-84.581405,41.156932]}},
{"type": "Feature","properties": {"NAME1":"KARL ROAD DRUGGIST LLC","NPI":"1417935297","STREET1":"5770 KARL RD","STREET2":"","CITY":"COLUMBUS","STATE":"OH","ZIP":"43229","CATEGORY":"NPPES"},"geometry": {"type": "Point","coordinates": [-82.974818,40.084871]}},
{"type": "Feature","properties": {"NAME1":"CAMBRIDGE HOME HEALTH CARE, INC.","NPI":"1225016124","STREET1":"1313 W BOGART RD","STREET2":"SUITE B","CITY":"SANDUSKY","STATE":"OH","ZIP":"44870","CATEGORY":"NPPES"},"geometry": {"type": "Point","coordinates": [-82.699232,41.396553]}},
{"type": "Feature","properties": {"NAME1":"R & F INC.","NPI":"1659350403","STREET1":"6228 MERGER DR","STREET2":"","CITY":"HOLLAND","STATE":"OH","ZIP":"43528","CATEGORY":"NPPES"},"geometry": {"type": "Point","coordinates": [-83.690335,41.620133]}},
{"type": "Feature","properties": {"NAME1":"HENRY COUNTY AUDITORS OFFICE","NPI":"1518947688","STREET1":"1843 OAKWOOD AVE","STREET2":"","CITY":"NAPOLEON","STATE":"OH","ZIP":"43545","CATEGORY":"NPPES"},"geometry": {"type": "Point","coordinates": [-84.123265,41.408623]}},
{"type": "Feature","properties": {"NAME1":"HENRY COUNTY AUDITORS OFFICE","NPI":"1568442556","STREET1":"1843 OAKWOOD AVE","STREET2":"","CITY":"NAPOLEON","STATE":"OH","ZIP":"43545","CATEGORY":"NPPES"},"geometry": {"type": "Point","coordinates": [-84.123265,41.408623]}},
{"type": "Feature","properties": {"NAME1":"THE HOSPICE OF DAYTON, INC.","NPI":"1346220142","STREET1":"324 WILMINGTON AVE","STREET2":"","CITY":"DAYTON","STATE":"OH","ZIP":"45420","CATEGORY":"NPPES"},"geometry": {"type": "Point","coordinates": [-84.160692,39.735047]}},
{"type": "Feature","properties": {"NAME1":"ANDY BOYDS INHOME MEDICAL INC WEST","NPI":"1689654287","STREET1":"135 TOWNSHIP ROAD 1012","STREET2":"","CITY":"SOUTH POINT","STATE":"OH","ZIP":"45680","CATEGORY":"NPPES"},"geometry": {"type": "Point","coordinates": [-82.519545,38.412573]}},
{"type": "Feature","properties": {"NAME1":"ORTHOPAEDIC INSTITUTE OF OHIO, INC","NPI":"1902886492","STREET1":"801 MEDICAL DR","STREET2":"SUITE A","CITY":"LIMA","STATE":"OH","ZIP":"45804","CATEGORY":"NPPES"},"geometry": {"type": "Point","coordinates": [-84.088369,40.697566]}},
{"type": "Feature","properties": {"NAME1":"A-1 MEDICAL EQUIPMENT INC","NPI":"1124098348","STREET1":"8550 BILSTEIN BLVD","STREET2":"","CITY":"HAMILTON","STATE":"OH","ZIP":"45015","CATEGORY":"NPPES"},"geometry": {"type": "Point","coordinates": [-84.567353,39.37703]}},
{"type": "Feature","properties": {"NAME1":"ALWAYS MEDICAL EQUIPMENT INC","NPI":"1366412421","STREET1":"95 N BRIDGE ST","STREET2":"","CITY":"CHILLICOTHE","STATE":"OH","ZIP":"45601","CATEGORY":"NPPES"},"geometry": {"type": "Point","coordinates": [-82.974809,39.336635]}},
{"type": "Feature","properties": {"NAME1":"RESPONSIVE HOME HEALTH CARE INC","NPI":"1831169549","STREET1":"1093 UPPER VALLEY PIKE","STREET2":"","CITY":"SPRINGFIELD","STATE":"OH","ZIP":"45504","CATEGORY":"NPPES"},"geometry": {"type": "Point","coordinates": [-83.856823,39.940501]}},
{"type": "Feature","properties": {"NAME1":"RESPONSIVE HOME HEALTH CARE INC","NPI":"1164492856","STREET1":"1300 CLARK ST UNIT 1","STREET2":"","CITY":"CAMBRIDGE","STATE":"OH","ZIP":"43725","CATEGORY":"NPPES"},"geometry": {"type": "Point","coordinates": [-81.576608,40.039063]}},
{"type": "Feature","properties": {"NAME1":"RESPONSIVE HOME HEALTH CARE INC","NPI":"1548230246","STREET1":"950 TAYLOR STATION RD","STREET2":"SUITE N","CITY":"GAHANNA","STATE":"OH","ZIP":"43230","CATEGORY":"NPPES"},"geometry": {"type": "Point","coordinates": [-82.848652,40.00311]}},
{"type": "Feature","properties": {"NAME1":"RESPONSIVE HOME HEALTH CARE INC","NPI":"1477523199","STREET1":"1145 E TEMPLE ST","STREET2":"","CITY":"WASHINGTON COURT HOUSE","STATE":"OH","ZIP":"43160","CATEGORY":"NPPES"},"geometry": {"type": "Point","coordinates": [-83.429209,39.545703]}},
{"type": "Feature","properties": {"NAME1":"RESPONSIVE HOME HEALTH CARE INC","NPI":"1437129160","STREET1":"826 COOKSON AVE SE","STREET2":"","CITY":"NEW PHILADELPHIA","STATE":"OH","ZIP":"44663","CATEGORY":"NPPES"},"geometry": {"type": "Point","coordinates": [-81.440606,40.474447]}},
{"type": "Feature","properties": {"NAME1":"DR. DELLAGATTA & ASSOCIATES (SOUTHERN PARK), INC.","NPI":"1235109604","STREET1":"930 BOARDMAN-POLAND ROAD","STREET2":"","CITY":"BOARDMAN","STATE":"OH","ZIP":"44512","CATEGORY":"NPPES"},"geometry": {"type": "Point","coordinates": [-80.635831,41.024552]}},
{"type": "Feature","properties": {"NAME1":"FAIRVIEW EYE CENTER","NPI":"1164492591","STREET1":"16400 HILLIARD RD","STREET2":"","CITY":"LAKEWOOD","STATE":"OH","ZIP":"44107","CATEGORY":"NPPES"},"geometry": {"type": "Point","coordinates": [-81.811395,41.476394]}},
{"type": "Feature","properties": {"NAME1":"GALION COMMUNITY HOSPITAL","NPI":"1215907522","STREET1":"269 PORTLANDWAY SOUTH","STREET2":"","CITY":"GALION","STATE":"OH","ZIP":"44833","CATEGORY":"NPPES"},"geometry": {"type": "Point","coordinates": [-82.803139,40.731088]}},
{"type": "Feature","properties": {"NAME1":"GALION COMMUNITY HOSPITAL","NPI":"1972573202","STREET1":"269 PORTLAND WAY S","STREET2":"","CITY":"GALION","STATE":"OH","ZIP":"44833","CATEGORY":"NPPES"},"geometry": {"type": "Point","coordinates": [-82.803139,40.731088]}},
{"type": "Feature","properties": {"NAME1":"GALION COMMUNITY HOSPITAL","NPI":"1871563106","STREET1":"269 PORTLANDWAY SOUTH","STREET2":"","CITY":"GALION","STATE":"OH","ZIP":"44833","CATEGORY":"NPPES"},"geometry": {"type": "Point","coordinates": [-82.803139,40.731088]}},
{"type": "Feature","properties": {"NAME1":"MECKLER DENTAL PROVIDERS (WESTGATE), INC.","NPI":"1184694556","STREET1":"3504 SECOR RD ST. 330","STREET2":"","CITY":"TOLEDO","STATE":"OH","ZIP":"43606","CATEGORY":"NPPES"},"geometry": {"type": "Point","coordinates": [-83.621846,41.68389]}},
{"type": "Feature","properties": {"NAME1":"ISAM IBRAHIM, D.D.S. & ASSOCIATES (EASTWOOD MALL/NILES), INC.","NPI":"1609847888","STREET1":"5555 YOUNGSTOWN WARREN RD UNIT 908","STREET2":"","CITY":"NILES","STATE":"OH","ZIP":"44446","CATEGORY":"NPPES"},"geometry": {"type": "Point","coordinates": [-80.746852,41.211242]}},
{"type": "Feature","properties": {"NAME1":"NAZIM A JAFFER","NPI":"1760453872","STREET1":"4308 BELMONT AVE","STREET2":"","CITY":"YOUNGSTOWN","STATE":"OH","ZIP":"44505","CATEGORY":"NPPES"},"geometry": {"type": "Point","coordinates": [-80.666077,41.159982]}},
{"type": "Feature","properties": {"NAME1":"RESPONSIVE HOME HEALTH CARE INC","NPI":"1194796227","STREET1":"606 TAYWOOD RD","STREET2":"SUITE 16","CITY":"ENGLEWOOD","STATE":"OH","ZIP":"45322","CATEGORY":"NPPES"},"geometry": {"type": "Point","coordinates": [-84.291018,39.865549]}},
{"type": "Feature","properties": {"NAME1":"RESPONSIVE HOME HEALTH CARE INC","NPI":"1508837659","STREET1":"983 LILA AVE","STREET2":"","CITY":"MILFORD","STATE":"OH","ZIP":"45150","CATEGORY":"NPPES"},"geometry": {"type": "Point","coordinates": [-84.278966,39.174462]}},
{"type": "Feature","properties": {"NAME1":"INNOVATIVE DIALYSIS SYSTEMS OF TOLEDO, LTD","NPI":"1235100355","STREET1":"3829 WOODLEY RD","STREET2":"BLDG C-12","CITY":"TOLEDO","STATE":"OH","ZIP":"43606","CATEGORY":"NPPES"},"geometry": {"type": "Point","coordinates": [-83.636236,41.688889]}},
{"type": "Feature","properties": {"NAME1":"DEFIANCE DIALYSIS CENTER, LTD.","NPI":"1720059892","STREET1":"220 STADIUM DR","STREET2":"","CITY":"DEFIANCE","STATE":"OH","ZIP":"43512","CATEGORY":"NPPES"},"geometry": {"type": "Point","coordinates": [-84.355249,41.301842]}},
{"type": "Feature","properties": {"NAME1":"DIALYSIS CENTERS OF NORTHWEST OHIO, LTD.","NPI":"1992776132","STREET1":"2400 ENTERPRISE ST","STREET2":"","CITY":"FREMONT","STATE":"OH","ZIP":"43420","CATEGORY":"NPPES"},"geometry": {"type": "Point","coordinates": [-83.115562,41.380195]}},
{"type": "Feature","properties": {"NAME1":"DIALYSIS CENTERS OF NORTHWEST OHIO, LTD.","NPI":"1184695314","STREET1":"2249 N REYNOLDS RD","STREET2":"","CITY":"TOLEDO","STATE":"OH","ZIP":"43615","CATEGORY":"NPPES"},"geometry": {"type": "Point","coordinates": [-83.667971,41.663749]}},
{"type": "Feature","properties": {"NAME1":"DIALYSIS CENTERS OF NORTHWEST OHIO, LTD.","NPI":"1770554917","STREET1":"5719 JACKMAN RD","STREET2":"","CITY":"TOLEDO","STATE":"OH","ZIP":"43613","CATEGORY":"NPPES"},"geometry": {"type": "Point","coordinates": [-83.585688,41.720147]}},
{"type": "Feature","properties": {"NAME1":"DASCO HME, LLC","NPI":"1689645558","STREET1":"1656 EAGLE WAY","STREET2":"","CITY":"ASHLAND","STATE":"OH","ZIP":"44805","CATEGORY":"NPPES"},"geometry": {"type": "Point","coordinates": [-82.281727,40.858935]}},
{"type": "Feature","properties": {"NAME1":"DASCO HME, LLC","NPI":"1740251628","STREET1":"375 N WEST ST","STREET2":"","CITY":"WESTERVILLE","STATE":"OH","ZIP":"43082","CATEGORY":"NPPES"},"geometry": {"type": "Point","coordinates": [-82.940039,40.135701]}},
{"type": "Feature","properties": {"NAME1":"DASCO HME, LLC","NPI":"1275504946","STREET1":"1054 BELLEFONTAINE AVE","STREET2":"SUITE A","CITY":"LIMA","STATE":"OH","ZIP":"45804","CATEGORY":"NPPES"},"geometry": {"type": "Point","coordinates": [-84.086234,40.734084]}},
{"type": "Feature","properties": {"NAME1":"INNOVATIVE DIALYSIS SYSTEMS OF TOLEDO, LTD","NPI":"1932170560","STREET1":"4447 TALMADGE RD","STREET2":"SUITE E","CITY":"TOLEDO","STATE":"OH","ZIP":"43623","CATEGORY":"NPPES"},"geometry": {"type": "Point","coordinates": [-83.639989,41.699172]}},
{"type": "Feature","properties": {"NAME1":"DASCO HME, LLC","NPI":"1750353025","STREET1":"375 N WEST ST","STREET2":"","CITY":"WESTERVILLE","STATE":"OH","ZIP":"43082","CATEGORY":"NPPES"},"geometry": {"type": "Point","coordinates": [-82.940039,40.135701]}},
{"type": "Feature","properties": {"NAME1":"MARIETTA MEMORIAL HOSPITAL","NPI":"1154393114","STREET1":"401 MATTHEW ST","STREET2":"","CITY":"MARIETTA","STATE":"OH","ZIP":"45750","CATEGORY":"NPPES"},"geometry": {"type": "Point","coordinates": [-81.464809,39.430756]}},
{"type": "Feature","properties": {"NAME1":"MARIETTA MEMORIAL HOSPITAL","NPI":"1942272901","STREET1":"401 MATTHEW ST","STREET2":"","CITY":"MARIETTA","STATE":"OH","ZIP":"45750","CATEGORY":"NPPES"},"geometry": {"type": "Point","coordinates": [-81.464809,39.430756]}},
{"type": "Feature","properties": {"NAME1":"AMERIPATH CLEVELAND INC","NPI":"1578535456","STREET1":"7730 FIRST PL","STREET2":"SUITE A","CITY":"OAKWOOD VILLAGE","STATE":"OH","ZIP":"44146","CATEGORY":"NPPES"},"geometry": {"type": "Point","coordinates": [-81.51252,41.373311]}},
{"type": "Feature","properties": {"NAME1":"NEUROSURGICAL ASSOCIATES OF NORTHWEST OHIO LLC","NPI":"1043282882","STREET1":"1900 S MAIN ST","STREET2":"","CITY":"FINDLAY","STATE":"OH","ZIP":"45840","CATEGORY":"NPPES"},"geometry": {"type": "Point","coordinates": [-83.650602,41.017201]}},
{"type": "Feature","properties": {"NAME1":"AMERIPATH CINCINNATI INC","NPI":"1881666741","STREET1":"9844 REDHILL DR","STREET2":"","CITY":"CINCINNATI","STATE":"OH","ZIP":"45242","CATEGORY":"NPPES"},"geometry": {"type": "Point","coordinates": [-84.379667,39.236554]}},
{"type": "Feature","properties": {"NAME1":"MECKLER DENTAL PROVIDERS (BELDEN), INC.","NPI":"1346212974","STREET1":"4220 BELDEN VILLAGE ST NW UNIT B","STREET2":"","CITY":"CANTON","STATE":"OH","ZIP":"44718","CATEGORY":"NPPES"},"geometry": {"type": "Point","coordinates": [-81.427908,40.855163]}},
{"type": "Feature","properties": {"NAME1":"CHARLES J. ZASSO, DDS & ASSOCIATES (MIDWAY), INC.","NPI":"1255303889","STREET1":"4900 MIDWAY BLVD","STREET2":"","CITY":"ELYRIA","STATE":"OH","ZIP":"44035","CATEGORY":"NPPES"},"geometry": {"type": "Point","coordinates": [-82.115252,41.398824]}},
{"type": "Feature","properties": {"NAME1":"DR. ZASSO & ASSOCIATES (SOUTHLAND), INC.","NPI":"1285606814","STREET1":"6950 W 130TH ST","STREET2":"","CITY":"MIDDLEBURG HEIGHTS","STATE":"OH","ZIP":"44130","CATEGORY":"NPPES"},"geometry": {"type": "Point","coordinates": [-81.785869,41.373507]}},
{"type": "Feature","properties": {"NAME1":"MECKLER DENTAL PROVIDERS (OLMSTED), INC","NPI":"1093787624","STREET1":"4710 GREAT NORTHERN BLVD","STREET2":"","CITY":"NORTH OLMSTED","STATE":"OH","ZIP":"44070","CATEGORY":"NPPES"},"geometry": {"type": "Point","coordinates": [-81.902813,41.419377]}},
{"type": "Feature","properties": {"NAME1":"HAMLET HEALTH CARE OPERATOR LLC","NPI":"1376516328","STREET1":"150 CLEVELAND ST","STREET2":"","CITY":"CHAGRIN FALLS","STATE":"OH","ZIP":"44022","CATEGORY":"NPPES"},"geometry": {"type": "Point","coordinates": [-81.384163,41.433728]}},
{"type": "Feature","properties": {"NAME1":"DR. TABACHNIK & ASSOCIATES (RICHMOND), INC.","NPI":"1720051410","STREET1":"1505 GOLDEN GATE PLZ","STREET2":"","CITY":"MAYFIELD HEIGHTS","STATE":"OH","ZIP":"44124","CATEGORY":"NPPES"},"geometry": {"type": "Point","coordinates": [-81.448991,41.519449]}},
{"type": "Feature","properties": {"NAME1":"MECKLER DENTAL PROVIDERS (STRONGSVILLE), INC.","NPI":"1639142326","STREET1":"13339 PEARL RD","STREET2":"","CITY":"STRONGSVILLE","STATE":"OH","ZIP":"44136","CATEGORY":"NPPES"},"geometry": {"type": "Point","coordinates": [-81.834606,41.316696]}},
{"type": "Feature","properties": {"NAME1":"MECKLER DENTAL PROVIDERS (GARFIELD), INC","NPI":"1457324147","STREET1":"12630 ROCKSIDE RD","STREET2":"","CITY":"GARFIELD HEIGHTS","STATE":"OH","ZIP":"44125","CATEGORY":"NPPES"},"geometry": {"type": "Point","coordinates": [-81.595515,41.399338]}},
{"type": "Feature","properties": {"NAME1":"MECKLER DENTAL PROVIDERS (DUBLIN), INC.","NPI":"1366415051","STREET1":"6185 SAWMILL RD","STREET2":"","CITY":"DUBLIN","STATE":"OH","ZIP":"43017","CATEGORY":"NPPES"},"geometry": {"type": "Point","coordinates": [-83.092506,40.093919]}},
{"type": "Feature","properties": {"NAME1":"MECKLER DENTAL PROVIDERS (SOUTH PLAZA), INC.","NPI":"1275506966","STREET1":"378 E WATERLOO RD","STREET2":"","CITY":"AKRON","STATE":"OH","ZIP":"44319","CATEGORY":"NPPES"},"geometry": {"type": "Point","coordinates": [-81.512773,41.027638]}},
{"type": "Feature","properties": {"NAME1":"FIDELITY ORTHOPEDIC INCORPORATED","NPI":"1285608802","STREET1":"8514 N MAIN ST","STREET2":"","CITY":"DAYTON","STATE":"OH","ZIP":"45415","CATEGORY":"NPPES"},"geometry": {"type": "Point","coordinates": [-84.267551,39.848847]}},
{"type": "Feature","properties": {"NAME1":"FIDELITY ORTHOPEDIC INC","NPI":"1851365472","STREET1":"7677 YANKEE ST","STREET2":"SUITE 210","CITY":"CENTERVILLE","STATE":"OH","ZIP":"45459","CATEGORY":"NPPES"},"geometry": {"type": "Point","coordinates": [-84.199763,39.638042]}},
{"type": "Feature","properties": {"NAME1":"FIDELITY ORTHOPEDIC INCORPORATED","NPI":"1972577245","STREET1":"7665 MONARCH CT","STREET2":"SUITE 110","CITY":"WEST CHESTER","STATE":"OH","ZIP":"45069","CATEGORY":"NPPES"},"geometry": {"type": "Point","coordinates": [-84.370237,39.352035]}},
{"type": "Feature","properties": {"NAME1":"ST VINCENT CHARITY MEDICAL CENTER","NPI":"1154395820","STREET1":"2351 E 22ND ST","STREET2":"","CITY":"CLEVELAND","STATE":"OH","ZIP":"44115","CATEGORY":"NPPES"},"geometry": {"type": "Point","coordinates": [-81.673025,41.496234]}},
{"type": "Feature","properties": {"NAME1":"PLANNED PARENTHOOD OF GREATER OHIO","NPI":"1477528594","STREET1":"77 EAST MIDLOTHIAN BOULEVARD","STREET2":"","CITY":"YOUNGSTOWN","STATE":"OH","ZIP":"44507","CATEGORY":"NPPES"},"geometry": {"type": "Point","coordinates": [-80.658833,41.060728]}},
{"type": "Feature","properties": {"NAME1":"UNIVERSITY HOSPITALS ST. JOHN MEDICAL CENTER","NPI":"1467427518","STREET1":"29000 CENTER RIDGE RD","STREET2":"","CITY":"WESTLAKE","STATE":"OH","ZIP":"44145","CATEGORY":"NPPES"},"geometry": {"type": "Point","coordinates": [-81.921811,41.445145]}},
{"type": "Feature","properties": {"NAME1":"DAYTON OSTEOPATHIC HOSPITAL","NPI":"1053386102","STREET1":"1989 MIAMISBURG CENTERVILLE RD","STREET2":"SUITE 204","CITY":"DAYTON","STATE":"OH","ZIP":"45459","CATEGORY":"NPPES"},"geometry": {"type": "Point","coordinates": [-84.205723,39.63375]}},
{"type": "Feature","properties": {"NAME1":"DAYTON OSTEOPATHIC HOSPITAL","NPI":"1588630347","STREET1":"165 S EDWIN C MOSES BLVD","STREET2":"","CITY":"DAYTON","STATE":"OH","ZIP":"45402","CATEGORY":"NPPES"},"geometry": {"type": "Point","coordinates": [-84.204717,39.752085]}},
{"type": "Feature","properties": {"NAME1":"PLANNED PARENTHOOD OF GREATER OHIO","NPI":"1255307732","STREET1":"1301 JEFFERSON AVE","STREET2":"","CITY":"TOLEDO","STATE":"OH","ZIP":"43604","CATEGORY":"NPPES"},"geometry": {"type": "Point","coordinates": [-83.544446,41.653972]}},
{"type": "Feature","properties": {"NAME1":"SUNSET RETIREMENT COMMUNITIES, INC","NPI":"1164498044","STREET1":"9640 SYLVANIA METAMORA RD","STREET2":"","CITY":"SYLVANIA","STATE":"OH","ZIP":"43560","CATEGORY":"NPPES"},"geometry": {"type": "Point","coordinates": [-83.778182,41.71868]}},
{"type": "Feature","properties": {"NAME1":"SKILLED CARE PHARMACY,LLC","NPI":"1629045976","STREET1":"9299 MARKET PL","STREET2":"","CITY":"BROADVIEW HEIGHTS","STATE":"OH","ZIP":"44147","CATEGORY":"NPPES"},"geometry": {"type": "Point","coordinates": [-81.662417,41.315488]}},
{"type": "Feature","properties": {"NAME1":"ALLWELL BEHAVIORAL HEALTH SERVICES","NPI":"1528036431","STREET1":"915 S RIVERSIDE DR NE","STREET2":"","CITY":"MCCONNELSVILLE","STATE":"OH","ZIP":"43756","CATEGORY":"NPPES"},"geometry": {"type": "Point","coordinates": [-81.824664,39.612569]}},
{"type": "Feature","properties": {"NAME1":"ALLWELL BEHAVIORAL HEALTH SERVICES","NPI":"1225006133","STREET1":"1199 S 2ND ST","STREET2":"","CITY":"COSHOCTON","STATE":"OH","ZIP":"43812","CATEGORY":"NPPES"},"geometry": {"type": "Point","coordinates": [-81.87002,40.259401]}},
{"type": "Feature","properties": {"NAME1":"ALLWELL BEHAVIORAL HEALTH SERVICES","NPI":"1790753663","STREET1":"2500 JOHN GLENN HWY","STREET2":"","CITY":"CAMBRIDGE","STATE":"OH","ZIP":"43725","CATEGORY":"NPPES"},"geometry": {"type": "Point","coordinates": [-81.695024,39.997123]}},
{"type": "Feature","properties": {"NAME1":"ALLWELL BEHAVIORAL HEALTH SERVICES","NPI":"1821066796","STREET1":"1375 COMMERCE DR","STREET2":"","CITY":"NEW LEXINGTON","STATE":"OH","ZIP":"43764","CATEGORY":"NPPES"},"geometry": {"type": "Point","coordinates": [-82.18645,39.708593]}},
{"type": "Feature","properties": {"NAME1":"WHEELING HOSPITAL INC","NPI":"1164490041","STREET1":"3000 GUERNSEY ST","STREET2":"","CITY":"BELLAIRE","STATE":"OH","ZIP":"43906","CATEGORY":"NPPES"},"geometry": {"type": "Point","coordinates": [-80.744947,40.013257]}},
{"type": "Feature","properties": {"NAME1":"WHEELING HOSPITAL INC","NPI":"1588632251","STREET1":"63 HIGHWAY 7 S","STREET2":"","CITY":"POWHATAN POINT","STATE":"OH","ZIP":"43942","CATEGORY":"NPPES"},"geometry": {"type": "Point","coordinates": [-80.815735,39.859552]}},
{"type": "Feature","properties": {"NAME1":"ALLWELL BEHAVIORAL HEALTH SERVICES","NPI":"1902874589","STREET1":"3405 DILLON ACRES DR","STREET2":"","CITY":"ZANESVILLE","STATE":"OH","ZIP":"43701","CATEGORY":"NPPES"},"geometry": {"type": "Point","coordinates": [-82.058566,39.983028]}},
{"type": "Feature","properties": {"NAME1":"ALLWELL BEHAVIORAL HEALTH SERVICES","NPI":"1780652255","STREET1":"44020 MARIETTA RD","STREET2":"","CITY":"CALDWELL","STATE":"OH","ZIP":"43724","CATEGORY":"NPPES"},"geometry": {"type": "Point","coordinates": [-81.521435,39.73556]}},
{"type": "Feature","properties": {"NAME1":"PLEASANT VALLEY HOSPITAL, INC","NPI":"1063481141","STREET1":"518 E. MAIN STREET","STREET2":"","CITY":"POMEROY","STATE":"OH","ZIP":"45769","CATEGORY":"NPPES"},"geometry": {"type": "Point","coordinates": [-82.022193,39.030222]}},
{"type": "Feature","properties": {"NAME1":"APPLEWOOD CENTERS, INC.","NPI":"1982672028","STREET1":"10427 DETROIT AVE","STREET2":"","CITY":"CLEVELAND","STATE":"OH","ZIP":"44102","CATEGORY":"NPPES"},"geometry": {"type": "Point","coordinates": [-81.759155,41.480692]}},
{"type": "Feature","properties": {"NAME1":"APPLEWOOD CENTERS, INC.","NPI":"1780652966","STREET1":"347 MIDWAY BLVD","STREET2":"","CITY":"ELYRIA","STATE":"OH","ZIP":"44035","CATEGORY":"NPPES"},"geometry": {"type": "Point","coordinates": [-82.109479,41.399148]}},
{"type": "Feature","properties": {"NAME1":"MARY RUTAN HOSPITAL","NPI":"1003875949","STREET1":"4879 US HIGHWAY 68 S","STREET2":"","CITY":"WEST LIBERTY","STATE":"OH","ZIP":"43357","CATEGORY":"NPPES"},"geometry": {"type": "Point","coordinates": [-83.760188,40.291647]}},
{"type": "Feature","properties": {"NAME1":"CORPORATE HEALTH SERVICES OF MARY RUTAN HEALTH ASSOCIATION","NPI":"1962461913","STREET1":"205 E PALMER RD","STREET2":"","CITY":"BELLEFONTAINE","STATE":"OH","ZIP":"43311","CATEGORY":"NPPES"},"geometry": {"type": "Point","coordinates": [-83.755917,40.369085]}},
{"type": "Feature","properties": {"NAME1":"MARY RUTAN HOSPITAL","NPI":"1366401002","STREET1":"205 E PALMER RD","STREET2":"","CITY":"BELLEFONTAINE","STATE":"OH","ZIP":"43311","CATEGORY":"NPPES"},"geometry": {"type": "Point","coordinates": [-83.755917,40.369085]}},
{"type": "Feature","properties": {"NAME1":"MARY RUTAN HOSPITAL","NPI":"1134189475","STREET1":"2231 TIMBER TRL","STREET2":"","CITY":"BELLEFONTAINE","STATE":"OH","ZIP":"43311","CATEGORY":"NPPES"},"geometry": {"type": "Point","coordinates": [-83.716966,40.366488]}},
{"type": "Feature","properties": {"NAME1":"MARY RUTAN HOSPITAL","NPI":"1538129473","STREET1":"205 E PALMER RD","STREET2":"","CITY":"BELLEFONTAINE","STATE":"OH","ZIP":"43311","CATEGORY":"NPPES"},"geometry": {"type": "Point","coordinates": [-83.755917,40.369085]}},
{"type": "Feature","properties": {"NAME1":"MARY RUTAN HOSPITAL","NPI":"1942260047","STREET1":"116 DOWELL AVE","STREET2":"","CITY":"BELLEFONTAINE","STATE":"OH","ZIP":"43311","CATEGORY":"NPPES"},"geometry": {"type": "Point","coordinates": [-83.754985,40.376675]}},
{"type": "Feature","properties": {"NAME1":"LOGAN VIEW PEDIATRICS","NPI":"1487614152","STREET1":"118 DOWELL AVE","STREET2":"","CITY":"BELLEFONTAINE","STATE":"OH","ZIP":"43311","CATEGORY":"NPPES"},"geometry": {"type": "Point","coordinates": [-83.755001,40.376675]}},
{"type": "Feature","properties": {"NAME1":"FIRELANDS REGIONAL MEDICAL CENTER","NPI":"1457312886","STREET1":"1111 HAYES AVE","STREET2":"","CITY":"SANDUSKY","STATE":"OH","ZIP":"44870","CATEGORY":"NPPES"},"geometry": {"type": "Point","coordinates": [-82.709834,41.446063]}},
{"type": "Feature","properties": {"NAME1":"FAMILY SERVICE OF NORTHWEST OHIO","NPI":"1821059916","STREET1":"7320 STATE HIGHWAY 108","STREET2":"","CITY":"WAUSEON","STATE":"OH","ZIP":"43567","CATEGORY":"NPPES"},"geometry": {"type": "Point","coordinates": [-84.178148,41.59151]}},
{"type": "Feature","properties": {"NAME1":"OBSTETRICS AND GYNECOLOGY SOUTH INC","NPI":"1902867930","STREET1":"3533 SOUTHERN BLVD","STREET2":"SUITE 4600","CITY":"KETTERING","STATE":"OH","ZIP":"45429","CATEGORY":"NPPES"},"geometry": {"type": "Point","coordinates": [-84.190602,39.698593]}},
{"type": "Feature","properties": {"NAME1":"MERCY HEALTH-REGIONAL MEDICAL CENTER LLC","NPI":"1023070802","STREET1":"3500 KOLBE RD","STREET2":"","CITY":"LORAIN","STATE":"OH","ZIP":"44053","CATEGORY":"NPPES"},"geometry": {"type": "Point","coordinates": [-82.235436,41.43691]}},
{"type": "Feature","properties": {"NAME1":"DCA OF TOLEDO LLC","NPI":"1225091846","STREET1":"1037 CONNEAUT AVE","STREET2":"","CITY":"BOWLING GREEN","STATE":"OH","ZIP":"43402","CATEGORY":"NPPES"},"geometry": {"type": "Point","coordinates": [-83.668958,41.377741]}},
{"type": "Feature","properties": {"NAME1":"FAMILY SERVICE OF NORTHWEST OHIO","NPI":"1750344271","STREET1":"1 STRANAHAN SQ","STREET2":"SUITE 414","CITY":"TOLEDO","STATE":"OH","ZIP":"43604","CATEGORY":"NPPES"},"geometry": {"type": "Point","coordinates": [-83.532482,41.654353]}},
{"type": "Feature","properties": {"NAME1":"FAMILY SERVICE OF NORTHWEST OHIO","NPI":"1669435186","STREET1":"1616 E WOOSTER ST","STREET2":"","CITY":"BOWLING GREEN","STATE":"OH","ZIP":"43402","CATEGORY":"NPPES"},"geometry": {"type": "Point","coordinates": [-83.623198,41.373307]}},
{"type": "Feature","properties": {"NAME1":"TUSCAN, INC","NPI":"1568425023","STREET1":"1450 HANES RD STE D","STREET2":"","CITY":"BEAVERCREEK","STATE":"OH","ZIP":"45434","CATEGORY":"NPPES"},"geometry": {"type": "Point","coordinates": [-84.045923,39.731345]}},
{"type": "Feature","properties": {"NAME1":"DCA OF CINCINNATI LLC","NPI":"1770546244","STREET1":"7600 AFFINITY DR","STREET2":"","CITY":"MOUNT HEALTHY","STATE":"OH","ZIP":"45231","CATEGORY":"NPPES"},"geometry": {"type": "Point","coordinates": [-84.538246,39.232046]}},
{"type": "Feature","properties": {"NAME1":"DCA OF NORWOOD LLC","NPI":"1497718993","STREET1":"1721 TENNESSEE AVE","STREET2":"","CITY":"CINCINNATI","STATE":"OH","ZIP":"45229","CATEGORY":"NPPES"},"geometry": {"type": "Point","coordinates": [-84.469359,39.167124]}},
{"type": "Feature","properties": {"NAME1":"MECKLER DENTAL PROVIDERS (GREAT LAKES), INC.","NPI":"1801859681","STREET1":"36173 EUCLID AVE","STREET2":"","CITY":"WILLOUGHBY","STATE":"OH","ZIP":"44094","CATEGORY":"NPPES"},"geometry": {"type": "Point","coordinates": [-81.430318,41.627483]}},
{"type": "Feature","properties": {"NAME1":"JOINT TOWNSHIP DISTRICT MEMORIAL HOSPITAL","NPI":"1184688194","STREET1":"200 SAINT CLAIR AVE","STREET2":"","CITY":"ST MARYS","STATE":"OH","ZIP":"45885","CATEGORY":"NPPES"},"geometry": {"type": "Point","coordinates": [-84.370447,40.544224]}},
{"type": "Feature","properties": {"NAME1":"JOINT TOWNSHIP DISTRICT MEMORIAL HOSPITAL","NPI":"1811951817","STREET1":"1122 E SPRING ST","STREET2":"","CITY":"ST MARYS","STATE":"OH","ZIP":"45885","CATEGORY":"NPPES"},"geometry": {"type": "Point","coordinates": [-84.371551,40.546405]}},
{"type": "Feature","properties": {"NAME1":"JOINT TOWNSHIP DISTRICT MEMORIAL HOSPITAL","NPI":"1750345765","STREET1":"200 SAINT CLAIR AVE","STREET2":"","CITY":"ST MARYS","STATE":"OH","ZIP":"45885","CATEGORY":"NPPES"},"geometry": {"type": "Point","coordinates": [-84.370447,40.544224]}},
{"type": "Feature","properties": {"NAME1":"JOINT TOWNSHIP DISTRICT MEMORIAL HOSPITAL","NPI":"1528023868","STREET1":"1122 E SPRING ST","STREET2":"","CITY":"ST MARYS","STATE":"OH","ZIP":"45885","CATEGORY":"NPPES"},"geometry": {"type": "Point","coordinates": [-84.371551,40.546405]}},
{"type": "Feature","properties": {"NAME1":"FS TENANT POOL III TRUST","NPI":"1154386605","STREET1":"4590 KNIGHTSBRIDGE BLVD","STREET2":"","CITY":"COLUMBUS","STATE":"OH","ZIP":"43214","CATEGORY":"NPPES"},"geometry": {"type": "Point","coordinates": [-83.040697,40.05337]}},
{"type": "Feature","properties": {"NAME1":"HARTVILLE INTERNAL MEDICINE PA","NPI":"1033174024","STREET1":"113 CEDAR ST S","STREET2":"","CITY":"EAST CANTON","STATE":"OH","ZIP":"44730","CATEGORY":"NPPES"},"geometry": {"type": "Point","coordinates": [-81.284302,40.786799]}},
{"type": "Feature","properties": {"NAME1":"HOME NURSING SERVICE AND HOSPICE","NPI":"1275598260","STREET1":"210 N 7TH ST","STREET2":"SUITE 300","CITY":"MARIETTA","STATE":"OH","ZIP":"45750","CATEGORY":"NPPES"},"geometry": {"type": "Point","coordinates": [-81.446189,39.417653]}},
{"type": "Feature","properties": {"NAME1":"WASHINGTON COUNTY HOME NURSING","NPI":"1528024031","STREET1":"210 N 7TH ST","STREET2":"SUITE 300","CITY":"MARIETTA","STATE":"OH","ZIP":"45750","CATEGORY":"NPPES"},"geometry": {"type": "Point","coordinates": [-81.446189,39.417653]}},
{"type": "Feature","properties": {"NAME1":"COMMUNITY MERCY HEALTH PARTNERS","NPI":"1326004409","STREET1":"1500 VILLA RD","STREET2":"","CITY":"SPRINGFIELD","STATE":"OH","ZIP":"45503","CATEGORY":"NPPES"},"geometry": {"type": "Point","coordinates": [-83.776841,39.969296]}},
{"type": "Feature","properties": {"NAME1":"BUREAU OF DRUG ABUSE,CLEVELAND TREATMENT CENTER,INC.","NPI":"1619934676","STREET1":"1127 CARNEGIE AVE","STREET2":"","CITY":"CLEVELAND","STATE":"OH","ZIP":"44115","CATEGORY":"NPPES"},"geometry": {"type": "Point","coordinates": [-81.681392,41.496622]}},
{"type": "Feature","properties": {"NAME1":"MERCY FRANCISCAN SENIOR HEALTH AND HOUSING SERVICES, INC.","NPI":"1821054859","STREET1":"2950 WEST PARK DRIVE","STREET2":"","CITY":"CINCINNATI","STATE":"OH","ZIP":"45238","CATEGORY":"NPPES"},"geometry": {"type": "Point","coordinates": [-84.598763,39.130456]}},
{"type": "Feature","properties": {"NAME1":"MERCY FRANCISCAN SENIOR HEALTH AND HOUSING SERVICES, IN","NPI":"1457317471","STREET1":"100 COMPTON AVE","STREET2":"","CITY":"CINCINNATI","STATE":"OH","ZIP":"45215","CATEGORY":"NPPES"},"geometry": {"type": "Point","coordinates": [-84.478055,39.219147]}},
{"type": "Feature","properties": {"NAME1":"COMMUNITY MERCY HEALTH PTRS","NPI":"1679530489","STREET1":"100 W MCCREIGHT AVE","STREET2":"","CITY":"SPRINGFIELD","STATE":"OH","ZIP":"45504","CATEGORY":"NPPES"},"geometry": {"type": "Point","coordinates": [-83.810915,39.939143]}},
{"type": "Feature","properties": {"NAME1":"MERCY FRANCISCAN SENIOR HEALTH AND HOUSING SERVICES, INC.","NPI":"1790742518","STREET1":"7010 ROWAN HILL DRIVE","STREET2":"","CITY":"CINCINNATI","STATE":"OH","ZIP":"45227","CATEGORY":"NPPES"},"geometry": {"type": "Point","coordinates": [-84.369082,39.149326]}},
{"type": "Feature","properties": {"NAME1":"MERCY FRANCISCAN SENIOR HEALTH AND HOUSING SERVICES, INC.","NPI":"1053378877","STREET1":"1302 MILLVILLE AVE","STREET2":"","CITY":"HAMILTON","STATE":"OH","ZIP":"45013","CATEGORY":"NPPES"},"geometry": {"type": "Point","coordinates": [-84.605225,39.405536]}},
{"type": "Feature","properties": {"NAME1":"BELLEFAIRE JCB","NPI":"1205893070","STREET1":"22001 FAIRMOUNT BLVD","STREET2":"","CITY":"SHAKER HEIGHTS","STATE":"OH","ZIP":"44118","CATEGORY":"NPPES"},"geometry": {"type": "Point","coordinates": [-81.524894,41.487143]}},
{"type": "Feature","properties": {"NAME1":"C.H. HEALTH SERVICES COMPANY","NPI":"1952368680","STREET1":"1 E PLEASANT ST","STREET2":"","CITY":"SPRINGFIELD","STATE":"OH","ZIP":"45506","CATEGORY":"NPPES"},"geometry": {"type": "Point","coordinates": [-83.810357,39.918535]}},
{"type": "Feature","properties": {"NAME1":"MHSWO HEALTH VENTURES, INC.","NPI":"1831156561","STREET1":"2200 N LIMESTONE ST","STREET2":"SUITE 102","CITY":"SPRINGFIELD","STATE":"OH","ZIP":"45503","CATEGORY":"NPPES"},"geometry": {"type": "Point","coordinates": [-83.802495,39.951601]}},
{"type": "Feature","properties": {"NAME1":"WASHINGTON COUNTY HOME NURSING","NPI":"1487611133","STREET1":"210 N 7TH ST","STREET2":"SUITE 300","CITY":"MARIETTA","STATE":"OH","ZIP":"45750","CATEGORY":"NPPES"},"geometry": {"type": "Point","coordinates": [-81.446189,39.417653]}},
{"type": "Feature","properties": {"NAME1":"COMMUNITY MERCY HEALTH PARTNERS","NPI":"1417914672","STREET1":"235 W ORCHARD SPRINGS","STREET2":"","CITY":"DAYTON","STATE":"OH","ZIP":"45415","CATEGORY":"NPPES"},"geometry": {"type": "Point","coordinates": [-84.243241,39.821228]}},
{"type": "Feature","properties": {"NAME1":"C.H. HEALTH SERVICES COMPANY","NPI":"1013974161","STREET1":"2501 E HIGH ST","STREET2":"","CITY":"SPRINGFIELD","STATE":"OH","ZIP":"45505","CATEGORY":"NPPES"},"geometry": {"type": "Point","coordinates": [-83.771693,39.92113]}},
{"type": "Feature","properties": {"NAME1":"THE COMMUNITY HOSPITAL OF SPRINGFIELD AND CLARK COUNTY","NPI":"1184681280","STREET1":"2615 E HIGH ST","STREET2":"","CITY":"SPRINGFIELD","STATE":"OH","ZIP":"45505","CATEGORY":"NPPES"},"geometry": {"type": "Point","coordinates": [-83.768725,39.920028]}},
{"type": "Feature","properties": {"NAME1":"BIO-MEDICAL APPLICATIONS OF OHIO, INC.","NPI":"1386602282","STREET1":"477 COOPER RD","STREET2":"SUITE 140","CITY":"WESTERVILLE","STATE":"OH","ZIP":"43081","CATEGORY":"NPPES"},"geometry": {"type": "Point","coordinates": [-82.944002,40.114936]}},
{"type": "Feature","properties": {"NAME1":"VAN WERT MEDICAL SERVICES, LTD.","NPI":"1942268735","STREET1":"140 FOX RD","STREET2":"STE 201","CITY":"VAN WERT","STATE":"OH","ZIP":"45891","CATEGORY":"NPPES"},"geometry": {"type": "Point","coordinates": [-84.582683,40.851612]}},
{"type": "Feature","properties": {"NAME1":"COMMUNITY MERCY HEALTH PARTNERS","NPI":"1255399655","STREET1":"2615 E HIGH ST","STREET2":"","CITY":"SPRINGFIELD","STATE":"OH","ZIP":"45505","CATEGORY":"NPPES"},"geometry": {"type": "Point","coordinates": [-83.768725,39.920028]}},
{"type": "Feature","properties": {"NAME1":"COMMUNITY MERCY HEALTH PARTNERS","NPI":"1790743102","STREET1":"2615 E HIGH ST","STREET2":"","CITY":"SPRINGFIELD","STATE":"OH","ZIP":"45505","CATEGORY":"NPPES"},"geometry": {"type": "Point","coordinates": [-83.768725,39.920028]}},
{"type": "Feature","properties": {"NAME1":"BELLEFAIRE JCB","NPI":"1952369514","STREET1":"1865 N RIDGE RD E STE D-E","STREET2":"","CITY":"LORAIN","STATE":"OH","ZIP":"44055","CATEGORY":"NPPES"},"geometry": {"type": "Point","coordinates": [-82.187157,41.416429]}},
{"type": "Feature","properties": {"NAME1":"COMMUNITY MERCY HEALTH PARTNERS","NPI":"1699733881","STREET1":"100 MEDICAL CENTER DR","STREET2":"","CITY":"SPRINGFIELD","STATE":"OH","ZIP":"45504","CATEGORY":"NPPES"},"geometry": {"type": "Point","coordinates": [-83.816266,39.928073]}},
{"type": "Feature","properties": {"NAME1":"RENAL CARE GROUP TOLEDO, LLC","NPI":"1477501690","STREET1":"2532 W LASKEY RD","STREET2":"","CITY":"TOLEDO","STATE":"OH","ZIP":"43613","CATEGORY":"NPPES"},"geometry": {"type": "Point","coordinates": [-83.605647,41.706818]}},
{"type": "Feature","properties": {"NAME1":"CHRIST HOSPITAL","NPI":"1932157385","STREET1":"2139 AUBURN AVE","STREET2":"","CITY":"CINCINNATI","STATE":"OH","ZIP":"45219","CATEGORY":"NPPES"},"geometry": {"type": "Point","coordinates": [-84.510239,39.121443]}},
{"type": "Feature","properties": {"NAME1":"PAULDING COUNTY HOSPITAL PHYSICIAN SERVICES","NPI":"1891744843","STREET1":"1032 W. WAYNE ST","STREET2":"","CITY":"PAULDING","STATE":"OH","ZIP":"45879","CATEGORY":"NPPES"},"geometry": {"type": "Point","coordinates": [-84.600775,41.135431]}},
{"type": "Feature","properties": {"NAME1":"CHRIST HOSPITAL","NPI":"1780633289","STREET1":"2139 AUBURN AVE","STREET2":"","CITY":"CINCINNATI","STATE":"OH","ZIP":"45219","CATEGORY":"NPPES"},"geometry": {"type": "Point","coordinates": [-84.510239,39.121443]}},
{"type": "Feature","properties": {"NAME1":"CHRIST HOSPITAL","NPI":"1932158466","STREET1":"2139 AUBURN AVENUE","STREET2":"","CITY":"CINCINNATI","STATE":"OH","ZIP":"45219","CATEGORY":"NPPES"},"geometry": {"type": "Point","coordinates": [-84.510239,39.121443]}},
{"type": "Feature","properties": {"NAME1":"MERCY MEDICAL CENTER, INC.","NPI":"1841241270","STREET1":"7568 WHIPPLE AVE NW","STREET2":"","CITY":"NORTH CANTON","STATE":"OH","ZIP":"44720","CATEGORY":"NPPES"},"geometry": {"type": "Point","coordinates": [-81.424219,40.890289]}},
{"type": "Feature","properties": {"NAME1":"SALEM COMMUNITY HOSPITAL","NPI":"1194775700","STREET1":"2235 E PERSHING ST","STREET2":"SUITE G","CITY":"SALEM","STATE":"OH","ZIP":"44460","CATEGORY":"NPPES"},"geometry": {"type": "Point","coordinates": [-80.829685,40.898906]}},
{"type": "Feature","properties": {"NAME1":"MERCY MEDICAL CENTER, INC.","NPI":"1487605978","STREET1":"1320 MERCY DR NW","STREET2":"","CITY":"CANTON","STATE":"OH","ZIP":"44708","CATEGORY":"NPPES"},"geometry": {"type": "Point","coordinates": [-81.396939,40.812287]}},
{"type": "Feature","properties": {"NAME1":"CUMBERLAND TRAIL FIRE DISTRICT NO 4","NPI":"1245281427","STREET1":"142 S MARIETTA ST","STREET2":"","CITY":"ST CLAIRSVILLE","STATE":"OH","ZIP":"43950","CATEGORY":"NPPES"},"geometry": {"type": "Point","coordinates": [-80.901074,40.076416]}},
{"type": "Feature","properties": {"NAME1":"VILLAGE OF NEWBURGH HEIGHTS","NPI":"1780635979","STREET1":"4071 E 49TH ST","STREET2":"","CITY":"NEWBURGH HEIGHTS","STATE":"OH","ZIP":"44105","CATEGORY":"NPPES"},"geometry": {"type": "Point","coordinates": [-81.656345,41.445687]}},
{"type": "Feature","properties": {"NAME1":"REGIONAL VASCULAR & VEIN INSTITUTE, INC","NPI":"1710938659","STREET1":"400 MEDICAL PARK DR","STREET2":"STE 203","CITY":"DOVER","STATE":"OH","ZIP":"44622","CATEGORY":"NPPES"},"geometry": {"type": "Point","coordinates": [-81.455743,40.516805]}},
{"type": "Feature","properties": {"NAME1":"MERCY MEDICAL CENTER, INC.","NPI":"1790737245","STREET1":"7568 WHIPPLE AVE NW","STREET2":"","CITY":"NORTH CANTON","STATE":"OH","ZIP":"44720","CATEGORY":"NPPES"},"geometry": {"type": "Point","coordinates": [-81.424219,40.890289]}},
{"type": "Feature","properties": {"NAME1":"TRILOGY HEALTHCARE OF PUTNAM II, LLC","NPI":"1891747036","STREET1":"575 OTTAWA GLANDORF RD","STREET2":"","CITY":"OTTAWA","STATE":"OH","ZIP":"45875","CATEGORY":"NPPES"},"geometry": {"type": "Point","coordinates": [-84.064084,41.021555]}},
{"type": "Feature","properties": {"NAME1":"MVHE INC","NPI":"1790738433","STREET1":"2451 WAYNE AVE","STREET2":"","CITY":"DAYTON","STATE":"OH","ZIP":"45420","CATEGORY":"NPPES"},"geometry": {"type": "Point","coordinates": [-84.158225,39.739162]}},
{"type": "Feature","properties": {"NAME1":"HEALTH SPECIALISTS OF DAYTON INC","NPI":"1598717308","STREET1":"3535 SALEM AVE","STREET2":"STE 201","CITY":"DAYTON","STATE":"OH","ZIP":"45406","CATEGORY":"NPPES"},"geometry": {"type": "Point","coordinates": [-84.244935,39.793434]}},
{"type": "Feature","properties": {"NAME1":"RADIOLOGY AND IMAGING SERVICES","NPI":"1316999121","STREET1":"400 WABASH AVE","STREET2":"SUITE 3500","CITY":"AKRON","STATE":"OH","ZIP":"44307","CATEGORY":"NPPES"},"geometry": {"type": "Point","coordinates": [-81.534115,41.078576]}},
{"type": "Feature","properties": {"NAME1":"HEALTH SPECIALISTS OF DAYTON INC","NPI":"1740232552","STREET1":"1 WYOMING ST","STREET2":"STE 4140","CITY":"DAYTON","STATE":"OH","ZIP":"45409","CATEGORY":"NPPES"},"geometry": {"type": "Point","coordinates": [-84.186539,39.745718]}},
{"type": "Feature","properties": {"NAME1":"MVHE INC","NPI":"1659323467","STREET1":"2350 MIAMI VALLEY DR","STREET2":"SUITE 530","CITY":"CENTERVILLE","STATE":"OH","ZIP":"45459","CATEGORY":"NPPES"},"geometry": {"type": "Point","coordinates": [-84.114612,39.652869]}},
{"type": "Feature","properties": {"NAME1":"TRIHEALTH PHYSICIAN INSTITUTE","NPI":"1922051697","STREET1":"619 OAK ST","STREET2":"4 - WEST","CITY":"CINCINNATI","STATE":"OH","ZIP":"45206","CATEGORY":"NPPES"},"geometry": {"type": "Point","coordinates": [-84.49718,39.129588]}},
{"type": "Feature","properties": {"NAME1":"MVHE INC","NPI":"1558313460","STREET1":"111 HARBERT DR","STREET2":"","CITY":"BEAVERCREEK","STATE":"OH","ZIP":"45440","CATEGORY":"NPPES"},"geometry": {"type": "Point","coordinates": [-84.082332,39.697992]}},
{"type": "Feature","properties": {"NAME1":"SELBY PHYSICIANS SERVICES INC","NPI":"1982656641","STREET1":"1106 COLEGATE DR","STREET2":"","CITY":"MARIETTA","STATE":"OH","ZIP":"45750","CATEGORY":"NPPES"},"geometry": {"type": "Point","coordinates": [-81.443577,39.43965]}},
{"type": "Feature","properties": {"NAME1":"BARBERTON HEALTH SYSTEM LLC","NPI":"1023060951","STREET1":"155 5TH ST NE","STREET2":"","CITY":"BARBERTON","STATE":"OH","ZIP":"44203","CATEGORY":"NPPES"},"geometry": {"type": "Point","coordinates": [-81.589669,41.013364]}},
{"type": "Feature","properties": {"NAME1":"MVHE INC","NPI":"1205888963","STREET1":"1244 MEADOW BRIDGE DR","STREET2":"SUITE 100","CITY":"BEAVERCREEK","STATE":"OH","ZIP":"45434","CATEGORY":"NPPES"},"geometry": {"type": "Point","coordinates": [-84.051526,39.725441]}},
{"type": "Feature","properties": {"NAME1":"CITY OF GREEN","NPI":"1932151669","STREET1":"4200 MASSILLON ROAD","STREET2":"","CITY":"GREEN","STATE":"OH","ZIP":"44232","CATEGORY":"NPPES"},"geometry": {"type": "Point","coordinates": [-81.46538,40.94694]}},
{"type": "Feature","properties": {"NAME1":"SAMARITAN FAMILY CARE, INC.","NPI":"1851344501","STREET1":"950 SALEM ST","STREET2":"","CITY":"BROOKVILLE","STATE":"OH","ZIP":"45309","CATEGORY":"NPPES"},"geometry": {"type": "Point","coordinates": [-84.404577,39.842608]}},
{"type": "Feature","properties": {"NAME1":"MVHE INC","NPI":"1861445520","STREET1":"7707 PARAGON RD","STREET2":"STE 101","CITY":"DAYTON","STATE":"OH","ZIP":"45459","CATEGORY":"NPPES"},"geometry": {"type": "Point","coordinates": [-84.181337,39.632299]}},
{"type": "Feature","properties": {"NAME1":"HEALTH SPECIALISTS OF DAYTON INC","NPI":"1275586984","STREET1":"630 N MAIN ST","STREET2":"STE 200A","CITY":"SPRINGBORO","STATE":"OH","ZIP":"45066","CATEGORY":"NPPES"},"geometry": {"type": "Point","coordinates": [-84.230958,39.574691]}},
{"type": "Feature","properties": {"NAME1":"RADIOLOGY AND IMAGING SERVICES","NPI":"1184677890","STREET1":"2603 W MARKET ST","STREET2":"STE 210","CITY":"AKRON","STATE":"OH","ZIP":"44313","CATEGORY":"NPPES"},"geometry": {"type": "Point","coordinates": [-81.598206,41.122684]}},
{"type": "Feature","properties": {"NAME1":"MVHE INC","NPI":"1861445116","STREET1":"1 ELIZABETH PL","STREET2":"NWG, SUITE 500","CITY":"DAYTON","STATE":"OH","ZIP":"45408","CATEGORY":"NPPES"},"geometry": {"type": "Point","coordinates": [-84.205621,39.776851]}},
{"type": "Feature","properties": {"NAME1":"SAMARITAN FAMILY CARE INC","NPI":"1235182668","STREET1":"6251 GOOD SAMARITAN WAY","STREET2":"SUITE 210C","CITY":"HUBER HEIGHTS","STATE":"OH","ZIP":"45424","CATEGORY":"NPPES"},"geometry": {"type": "Point","coordinates": [-84.124661,39.843947]}},
{"type": "Feature","properties": {"NAME1":"MVHE INC","NPI":"1982657318","STREET1":"4940 COTTONVILLE RD","STREET2":"SUITE 100","CITY":"JAMESTOWN","STATE":"OH","ZIP":"45335","CATEGORY":"NPPES"},"geometry": {"type": "Point","coordinates": [-83.750532,39.65436]}},
{"type": "Feature","properties": {"NAME1":"MVHE INC","NPI":"1356394795","STREET1":"30 E APPLE ST","STREET2":"SUITE 6250","CITY":"DAYTON","STATE":"OH","ZIP":"45409","CATEGORY":"NPPES"},"geometry": {"type": "Point","coordinates": [-84.187933,39.746129]}},
{"type": "Feature","properties": {"NAME1":"MVHE INC","NPI":"1285687244","STREET1":"51 E STEWART ST","STREET2":"","CITY":"DAYTON","STATE":"OH","ZIP":"45409","CATEGORY":"NPPES"},"geometry": {"type": "Point","coordinates": [-84.184794,39.740795]}},
{"type": "Feature","properties": {"NAME1":"HEALTH SPECIALISTS OF DAYTON INC","NPI":"1235182296","STREET1":"90 REMICK BLVD","STREET2":"","CITY":"SPRINGBORO","STATE":"OH","ZIP":"45066","CATEGORY":"NPPES"},"geometry": {"type": "Point","coordinates": [-84.224825,39.579407]}},
{"type": "Feature","properties": {"NAME1":"TRIHEALTH PHYSICIAN PRACTICES LLC","NPI":"1659324119","STREET1":"4440 RED BANK ROAD","STREET2":"STE. 200","CITY":"CINCINNATI","STATE":"OH","ZIP":"45242","CATEGORY":"NPPES"},"geometry": {"type": "Point","coordinates": [-84.402872,39.154958]}},
{"type": "Feature","properties": {"NAME1":"MVHE INC","NPI":"1740233212","STREET1":"101 S MAIN ST","STREET2":"","CITY":"CENTERVILLE","STATE":"OH","ZIP":"45458","CATEGORY":"NPPES"},"geometry": {"type": "Point","coordinates": [-84.159425,39.625476]}},
{"type": "Feature","properties": {"NAME1":"MVHE INC","NPI":"1922051994","STREET1":"1525 E STROOP RD","STREET2":"SUITE 200","CITY":"KETTERING","STATE":"OH","ZIP":"45429","CATEGORY":"NPPES"},"geometry": {"type": "Point","coordinates": [-84.138829,39.688736]}},
{"type": "Feature","properties": {"NAME1":"SAMARITAN FAMILY CARE INC","NPI":"1821041898","STREET1":"3535 SALEM AVE","STREET2":"STE 201","CITY":"DAYTON","STATE":"OH","ZIP":"45406","CATEGORY":"NPPES"},"geometry": {"type": "Point","coordinates": [-84.244935,39.793434]}},
{"type": "Feature","properties": {"NAME1":"MVHE INC","NPI":"1548213036","STREET1":"722 N FAIRFIELD RD","STREET2":"STE 200","CITY":"BEAVERCREEK","STATE":"OH","ZIP":"45434","CATEGORY":"NPPES"},"geometry": {"type": "Point","coordinates": [-84.062371,39.711312]}},
{"type": "Feature","properties": {"NAME1":"DHSC LLC","NPI":"1508819798","STREET1":"400 AUSTIN AVE NW","STREET2":"","CITY":"MASSILLON","STATE":"OH","ZIP":"44646","CATEGORY":"NPPES"},"geometry": {"type": "Point","coordinates": [-81.475836,40.798178]}},
{"type": "Feature","properties": {"NAME1":"TRICOUNTY PHYSICAL THERAPY","NPI":"1447203039","STREET1":"3983B PEARL RD","STREET2":"","CITY":"MEDINA","STATE":"OH","ZIP":"44256","CATEGORY":"NPPES"},"geometry": {"type": "Point","coordinates": [-81.861743,41.166512]}},
{"type": "Feature","properties": {"NAME1":"PREMIER HEALTH SPECIALISTS INC","NPI":"1043263643","STREET1":"30 E APPLE ST","STREET2":"STE 6258","CITY":"DAYTON","STATE":"OH","ZIP":"45409","CATEGORY":"NPPES"},"geometry": {"type": "Point","coordinates": [-84.187933,39.746129]}},
{"type": "Feature","properties": {"NAME1":"SAMARITAN FAMILY CARE INC","NPI":"1972556272","STREET1":"220 E MAIN ST","STREET2":"","CITY":"NEW LEBANON","STATE":"OH","ZIP":"45345","CATEGORY":"NPPES"},"geometry": {"type": "Point","coordinates": [-84.382325,39.745207]}},
{"type": "Feature","properties": {"NAME1":"MVHE INC","NPI":"1972556488","STREET1":"2132 E 3RD ST","STREET2":"","CITY":"DAYTON","STATE":"OH","ZIP":"45403","CATEGORY":"NPPES"},"geometry": {"type": "Point","coordinates": [-84.16337,39.763953]}},
{"type": "Feature","properties": {"NAME1":"SAMARITAN FAMILY CARE INC","NPI":"1134172661","STREET1":"9000 N MAIN ST","STREET2":"SUITE 300","CITY":"DAYTON","STATE":"OH","ZIP":"45415","CATEGORY":"NPPES"},"geometry": {"type": "Point","coordinates": [-84.271929,39.855571]}},
{"type": "Feature","properties": {"NAME1":"MVHE, INC.","NPI":"1932152469","STREET1":"51 E STEWART ST","STREET2":"","CITY":"DAYTON","STATE":"OH","ZIP":"45409","CATEGORY":"NPPES"},"geometry": {"type": "Point","coordinates": [-84.184794,39.740795]}},
{"type": "Feature","properties": {"NAME1":"MVHE INC","NPI":"1740233279","STREET1":"2180 GATEWAY DR","STREET2":"","CITY":"FAIRBORN","STATE":"OH","ZIP":"45324","CATEGORY":"NPPES"},"geometry": {"type": "Point","coordinates": [-84.001745,39.781682]}},
{"type": "Feature","properties": {"NAME1":"MVHE INC","NPI":"1841243862","STREET1":"3038 OLIVE RD","STREET2":"","CITY":"TROTWOOD","STATE":"OH","ZIP":"45426","CATEGORY":"NPPES"},"geometry": {"type": "Point","coordinates": [-84.292084,39.798847]}},
{"type": "Feature","properties": {"NAME1":"MVHE INC","NPI":"1639122641","STREET1":"360 W CENTRAL AVE","STREET2":"","CITY":"SPRINGBORO","STATE":"OH","ZIP":"45066","CATEGORY":"NPPES"},"geometry": {"type": "Point","coordinates": [-84.242015,39.559499]}},
{"type": "Feature","properties": {"NAME1":"TRIHEALTH PHYSICIAN PRACTICES, LLC","NPI":"1023062676","STREET1":"463 OHIO PIKE","STREET2":"SUITE 300","CITY":"CINCINNATI","STATE":"OH","ZIP":"45255","CATEGORY":"NPPES"},"geometry": {"type": "Point","coordinates": [-84.308966,39.071401]}},
{"type": "Feature","properties": {"NAME1":"SAMARITAN FAMILY CARE INC","NPI":"1558314500","STREET1":"211 W NATIONAL RD","STREET2":"","CITY":"ENGLEWOOD","STATE":"OH","ZIP":"45322","CATEGORY":"NPPES"},"geometry": {"type": "Point","coordinates": [-84.305839,39.877726]}},
{"type": "Feature","properties": {"NAME1":"JOINT TOWNSHIP DISTRICT MEMORIAL HOSPITAL","NPI":"1750334678","STREET1":"812 REDSKIN TRL","STREET2":"","CITY":"WAPAKONETA","STATE":"OH","ZIP":"45895","CATEGORY":"NPPES"},"geometry": {"type": "Point","coordinates": [-84.193306,40.584293]}},
{"type": "Feature","properties": {"NAME1":"TRIHEALTH PHYSICIAN PRACTICES, LLC","NPI":"1386698991","STREET1":"5861 CINEMA DR","STREET2":"","CITY":"MILFORD","STATE":"OH","ZIP":"45150","CATEGORY":"NPPES"},"geometry": {"type": "Point","coordinates": [-84.255157,39.193709]}},
{"type": "Feature","properties": {"NAME1":"SAMARITAN FAMILY CARE INC","NPI":"1467405332","STREET1":"1 W NATIONAL RD","STREET2":"","CITY":"VANDALIA","STATE":"OH","ZIP":"45377","CATEGORY":"NPPES"},"geometry": {"type": "Point","coordinates": [-84.199103,39.891054]}},
{"type": "Feature","properties": {"NAME1":"FAMILY PRACTICE ASSOCIATES, INC","NPI":"1114970001","STREET1":"2300 WALES AVENUE","STREET2":"","CITY":"MASSILLON","STATE":"OH","ZIP":"44646","CATEGORY":"NPPES"},"geometry": {"type": "Point","coordinates": [-81.502612,40.825225]}},
{"type": "Feature","properties": {"NAME1":"MVHE INC","NPI":"1104879097","STREET1":"55 ELVA CT","STREET2":"","CITY":"VANDALIA","STATE":"OH","ZIP":"45377","CATEGORY":"NPPES"},"geometry": {"type": "Point","coordinates": [-84.200674,39.88597]}},
{"type": "Feature","properties": {"NAME1":"JOINT TOWNSHIP DISTRICT MEMORIAL HOSPITAL","NPI":"1477506384","STREET1":"801 PRO DR","STREET2":"","CITY":"CELINA","STATE":"OH","ZIP":"45822","CATEGORY":"NPPES"},"geometry": {"type": "Point","coordinates": [-84.553948,40.55504]}},
{"type": "Feature","properties": {"NAME1":"MERCY MEDICAL CENTER, INC.","NPI":"1780637629","STREET1":"1320 MERCY DR NW","STREET2":"","CITY":"CANTON","STATE":"OH","ZIP":"44708","CATEGORY":"NPPES"},"geometry": {"type": "Point","coordinates": [-81.396939,40.812287]}},
{"type": "Feature","properties": {"NAME1":"TRIHEALTH PHYSICIAN PRACTICES, LLC","NPI":"1275587875","STREET1":"3035 HAMILTON MASON RD","STREET2":"SUITE 203","CITY":"HAMILTON","STATE":"OH","ZIP":"45011","CATEGORY":"NPPES"},"geometry": {"type": "Point","coordinates": [-84.516531,39.377589]}},
{"type": "Feature","properties": {"NAME1":"TRIHEALTH PHYSICIAN PRACTICES, LLC","NPI":"1114971793","STREET1":"425 FARRELL CT","STREET2":"","CITY":"CINCINNATI","STATE":"OH","ZIP":"45233","CATEGORY":"NPPES"},"geometry": {"type": "Point","coordinates": [-84.640267,39.096866]}},
{"type": "Feature","properties": {"NAME1":"DALTON VOLUNTEER FIRE DEPARTMENT INC","NPI":"1790739290","STREET1":"146 N CHURCH ST","STREET2":"","CITY":"DALTON","STATE":"OH","ZIP":"44618","CATEGORY":"NPPES"},"geometry": {"type": "Point","coordinates": [-81.698587,40.801026]}},
{"type": "Feature","properties": {"NAME1":"TRIHEALTH PHYSICIAN PRACTICES, LLC","NPI":"1326092560","STREET1":"7665 MONARCH CT","STREET2":"SUITE 101","CITY":"WEST CHESTER","STATE":"OH","ZIP":"45069","CATEGORY":"NPPES"},"geometry": {"type": "Point","coordinates": [-84.370237,39.352035]}},
{"type": "Feature","properties": {"NAME1":"TRIHEALTH PHYSICIAN PRACTICES, LLC","NPI":"1407800642","STREET1":"7829 LAUREL AVE","STREET2":"","CITY":"CINCINNATI","STATE":"OH","ZIP":"45243","CATEGORY":"NPPES"},"geometry": {"type": "Point","coordinates": [-84.358619,39.189798]}},
{"type": "Feature","properties": {"NAME1":"TRIHEALTH PHYSICIAN PRACTICES, LLC","NPI":"1366496549","STREET1":"7631 CHEVIOT RD","STREET2":"","CITY":"CINCINNATI","STATE":"OH","ZIP":"45247","CATEGORY":"NPPES"},"geometry": {"type": "Point","coordinates": [-84.601003,39.216512]}},
{"type": "Feature","properties": {"NAME1":"OPTUM PALLIATIVE AND HOSPICE CARE, INC,","NPI":"1508810052","STREET1":"9050 POINT CENTER DRIVE, SUITE 400","STREET2":"","CITY":"WEST CHESTER","STATE":"OH","ZIP":"45069","CATEGORY":"NPPES"},"geometry": {"type": "Point","coordinates": [-84.40536,39.336058]}},
{"type": "Feature","properties": {"NAME1":"TENDER LOVING CARE HEALTH CARE SERVICES MIDWEST, LLC","NPI":"1619921780","STREET1":"5830A HEISLEY RD","STREET2":"","CITY":"MENTOR","STATE":"OH","ZIP":"44060","CATEGORY":"NPPES"},"geometry": {"type": "Point","coordinates": [-81.303234,41.712049]}},
{"type": "Feature","properties": {"NAME1":"TENDER LOVING CARE HEALTH CARE SERVICES MIDWEST, LLC","NPI":"1437103504","STREET1":"2300 WALL ST","STREET2":"STE Q","CITY":"CINCINNATI","STATE":"OH","ZIP":"45212","CATEGORY":"NPPES"},"geometry": {"type": "Point","coordinates": [-84.451885,39.162248]}},
{"type": "Feature","properties": {"NAME1":"TRILOGY HEALTHCARE OF HANCOCK, LLC","NPI":"1992759831","STREET1":"2820 GREENACRE DR","STREET2":"","CITY":"FINDLAY","STATE":"OH","ZIP":"45840","CATEGORY":"NPPES"},"geometry": {"type": "Point","coordinates": [-83.658506,41.074359]}},
{"type": "Feature","properties": {"NAME1":"MVHE INC","NPI":"1124072004","STREET1":"722 N FAIRFIELD RD","STREET2":"","CITY":"BEAVERCREEK","STATE":"OH","ZIP":"45434","CATEGORY":"NPPES"},"geometry": {"type": "Point","coordinates": [-84.062371,39.711312]}},
{"type": "Feature","properties": {"NAME1":"HEALTH SPECIALISTS OF DAYTON INC","NPI":"1225082134","STREET1":"1126 S MAIN ST","STREET2":"","CITY":"DAYTON","STATE":"OH","ZIP":"45409","CATEGORY":"NPPES"},"geometry": {"type": "Point","coordinates": [-84.186871,39.742252]}},
{"type": "Feature","properties": {"NAME1":"TRILOGY HEALTHCARE OF OTTAWA, LLC","NPI":"1669426599","STREET1":"300 CHERRY ST","STREET2":"","CITY":"GENOA","STATE":"OH","ZIP":"43430","CATEGORY":"NPPES"},"geometry": {"type": "Point","coordinates": [-83.364424,41.514313]}},
{"type": "Feature","properties": {"NAME1":"TRILOGY HEALTHCARE OF ALLEN, LLC","NPI":"1932154812","STREET1":"800 AMBROSE DR","STREET2":"","CITY":"DELPHOS","STATE":"OH","ZIP":"45833","CATEGORY":"NPPES"},"geometry": {"type": "Point","coordinates": [-84.314721,40.850284]}},
{"type": "Feature","properties": {"NAME1":"WAYNE HOSPITAL COMPANY","NPI":"1194770800","STREET1":"835 SWEITZER ST","STREET2":"","CITY":"GREENVILLE","STATE":"OH","ZIP":"45331","CATEGORY":"NPPES"},"geometry": {"type": "Point","coordinates": [-84.634851,40.087998]}},
{"type": "Feature","properties": {"NAME1":"TRILOGY HEALTHCARE OF ALLEN II, LLC","NPI":"1124073895","STREET1":"883 W SPRING ST","STREET2":"","CITY":"LIMA","STATE":"OH","ZIP":"45805","CATEGORY":"NPPES"},"geometry": {"type": "Point","coordinates": [-84.122459,40.738508]}},
{"type": "Feature","properties": {"NAME1":"HEALTH SPECIALISTS OF DAYTON INC","NPI":"1639124175","STREET1":"160 WYOMING ST","STREET2":"","CITY":"DAYTON","STATE":"OH","ZIP":"45409","CATEGORY":"NPPES"},"geometry": {"type": "Point","coordinates": [-84.183768,39.74511]}},
{"type": "Feature","properties": {"NAME1":"TRIHEALTH PHYSICIAN PRACTICES, LLC","NPI":"1154376622","STREET1":"100 ARROW SPRINGS BLVD","STREET2":"SUITE 2800","CITY":"LEBANON","STATE":"OH","ZIP":"45036","CATEGORY":"NPPES"},"geometry": {"type": "Point","coordinates": [-84.173507,39.429284]}},
{"type": "Feature","properties": {"NAME1":"SAMARITAN FAMILY CARE INC","NPI":"1417902982","STREET1":"201 N LUDLOW STREET","STREET2":"","CITY":"PHILLIPSBURG","STATE":"OH","ZIP":"45354","CATEGORY":"NPPES"},"geometry": {"type": "Point","coordinates": [-84.399932,39.905826]}},
{"type": "Feature","properties": {"NAME1":"PLAIN TOWNSHIP TRUSTEES","NPI":"1255386652","STREET1":"2600 EASTON ST NE","STREET2":"","CITY":"CANTON","STATE":"OH","ZIP":"44721","CATEGORY":"NPPES"},"geometry": {"type": "Point","coordinates": [-81.332897,40.873635]}},
{"type": "Feature","properties": {"NAME1":"TOWNSHIP OF CANTON BOARD OF TRUSTEES","NPI":"1154376556","STREET1":"210 38TH ST SE","STREET2":"","CITY":"CANTON","STATE":"OH","ZIP":"44707","CATEGORY":"NPPES"},"geometry": {"type": "Point","coordinates": [-81.374746,40.753769]}},
{"type": "Feature","properties": {"NAME1":"TRILOGY HEALTHCARE OF PUTNAM III, LLC","NPI":"1588619571","STREET1":"901 E MAIN ST","STREET2":"","CITY":"LEIPSIC","STATE":"OH","ZIP":"45856","CATEGORY":"NPPES"},"geometry": {"type": "Point","coordinates": [-83.974736,41.096978]}},
{"type": "Feature","properties": {"NAME1":"SAMARITAN FAMILY CARE INC","NPI":"1356396436","STREET1":"9000 N MAIN ST","STREET2":"SUITE 305","CITY":"DAYTON","STATE":"OH","ZIP":"45415","CATEGORY":"NPPES"},"geometry": {"type": "Point","coordinates": [-84.271929,39.855571]}},
{"type": "Feature","properties": {"NAME1":"SAMARITAN FAMILY CARE INC","NPI":"1265487342","STREET1":"9000 N MAIN ST","STREET2":"SUITE G-35","CITY":"DAYTON","STATE":"OH","ZIP":"45415","CATEGORY":"NPPES"},"geometry": {"type": "Point","coordinates": [-84.271929,39.855571]}},
{"type": "Feature","properties": {"NAME1":"SAMARITAN FAMILY CARE INC.","NPI":"1083669162","STREET1":"9000 N MAIN ST","STREET2":"SUITE 200","CITY":"DAYTON","STATE":"OH","ZIP":"45415","CATEGORY":"NPPES"},"geometry": {"type": "Point","coordinates": [-84.271929,39.855571]}},
{"type": "Feature","properties": {"NAME1":"SAMARITAN FAMILY CARE INC","NPI":"1649225723","STREET1":"9000 N MAIN ST","STREET2":"SUITE G-35","CITY":"DAYTON","STATE":"OH","ZIP":"45415","CATEGORY":"NPPES"},"geometry": {"type": "Point","coordinates": [-84.271929,39.855571]}},
{"type": "Feature","properties": {"NAME1":"SAMARITAN FAMILY CARE INC","NPI":"1558316638","STREET1":"2200 PHILADELPHIA DR","STREET2":"STE 441","CITY":"DAYTON","STATE":"OH","ZIP":"45406","CATEGORY":"NPPES"},"geometry": {"type": "Point","coordinates": [-84.234341,39.787429]}},
{"type": "Feature","properties": {"NAME1":"SAMARITAN FAMILY CARE INC","NPI":"1467407544","STREET1":"6251 GOOD SAMARITAN WAY","STREET2":"SUITE 210A","CITY":"HUBER HEIGHTS","STATE":"OH","ZIP":"45424","CATEGORY":"NPPES"},"geometry": {"type": "Point","coordinates": [-84.124661,39.843947]}},
{"type": "Feature","properties": {"NAME1":"MVHE INC","NPI":"1154376242","STREET1":"6611 CLYO RD","STREET2":"SUITE A","CITY":"CENTERVILLE FINANCE","STATE":"OH","ZIP":"45459","CATEGORY":"NPPES"},"geometry": {"type": "Point","coordinates": [-84.132798,39.649986]}},
{"type": "Feature","properties": {"NAME1":"HEALTH SPECIALISTS OF DAYTON INC","NPI":"1841245925","STREET1":"1 WYOMING ST","STREET2":"STE 3110 BERRY PAVILION","CITY":"DAYTON","STATE":"OH","ZIP":"45409","CATEGORY":"NPPES"},"geometry": {"type": "Point","coordinates": [-84.186539,39.745718]}},
{"type": "Feature","properties": {"NAME1":"THE TAMARKIN COMPANY","NPI":"1386699304","STREET1":"2173 STRINGTOWN RD","STREET2":"","CITY":"GROVE CITY","STATE":"OH","ZIP":"43123","CATEGORY":"NPPES"},"geometry": {"type": "Point","coordinates": [-83.061124,39.876876]}},
{"type": "Feature","properties": {"NAME1":"NPCS INC","NPI":"1184670192","STREET1":"224 W. EXCHANGE STREET","STREET2":"SUITE 380","CITY":"AKRON","STATE":"OH","ZIP":"44302","CATEGORY":"NPPES"},"geometry": {"type": "Point","coordinates": [-81.529208,41.07971]}},
{"type": "Feature","properties": {"NAME1":"SUNBRIDGE CIRCLEVILLE HEALTH CARE LLC","NPI":"1447206503","STREET1":"1155 ATWATER AVE","STREET2":"","CITY":"CIRCLEVILLE","STATE":"OH","ZIP":"43113","CATEGORY":"NPPES"},"geometry": {"type": "Point","coordinates": [-82.936897,39.618579]}},
{"type": "Feature","properties": {"NAME1":"SUNBRIDGE CARE ENTERPRISES LLC","NPI":"1174579239","STREET1":"1900 E MAIN ST","STREET2":"","CITY":"LANCASTER","STATE":"OH","ZIP":"43130","CATEGORY":"NPPES"},"geometry": {"type": "Point","coordinates": [-82.558991,39.714485]}},
{"type": "Feature","properties": {"NAME1":"ARC THERAPY SERVICES LLC","NPI":"1689621427","STREET1":"28550 WESTLAKE VILLAGE DR","STREET2":"","CITY":"WESTLAKE","STATE":"OH","ZIP":"44145","CATEGORY":"NPPES"},"geometry": {"type": "Point","coordinates": [-81.938947,41.439645]}},
{"type": "Feature","properties": {"NAME1":"SUNBRIDGE HEALTHCARE LLC","NPI":"1699722181","STREET1":"920 S MAIN ST","STREET2":"","CITY":"NEW LEXINGTON","STATE":"OH","ZIP":"43764","CATEGORY":"NPPES"},"geometry": {"type": "Point","coordinates": [-82.208811,39.702257]}},
{"type": "Feature","properties": {"NAME1":"SUNBRIDGE MARION HEALTH CARE LLC","NPI":"1356398853","STREET1":"524 JAMES WAY","STREET2":"","CITY":"MARION","STATE":"OH","ZIP":"43302","CATEGORY":"NPPES"},"geometry": {"type": "Point","coordinates": [-83.077613,40.575115]}},
{"type": "Feature","properties": {"NAME1":"WORTHINGTON CENTER MANAGEMENT CO, INC","NPI":"1962459305","STREET1":"2515 WASHINGTON BLVD","STREET2":"","CITY":"BELPRE","STATE":"OH","ZIP":"45714","CATEGORY":"NPPES"},"geometry": {"type": "Point","coordinates": [-81.61346,39.279484]}},
{"type": "Feature","properties": {"NAME1":"TRIHEALTH PHYSICIAN PRACTICES, LLC","NPI":"1679520993","STREET1":"11029 MONTGOMERY RD","STREET2":"","CITY":"CINCINNATI","STATE":"OH","ZIP":"45249","CATEGORY":"NPPES"},"geometry": {"type": "Point","coordinates": [-84.335932,39.264227]}},
{"type": "Feature","properties": {"NAME1":"THE TAMARKIN COMPANY","NPI":"1710924907","STREET1":"5744 TRANSPORTATION BLVD","STREET2":"","CITY":"GARFIELD HEIGHTS","STATE":"OH","ZIP":"44125","CATEGORY":"NPPES"},"geometry": {"type": "Point","coordinates": [-81.612103,41.404559]}},
{"type": "Feature","properties": {"NAME1":"METROHEALTH SYSTEM","NPI":"1881631471","STREET1":"2500 METROHEALTH DR","STREET2":"","CITY":"CLEVELAND","STATE":"OH","ZIP":"44109","CATEGORY":"NPPES"},"geometry": {"type": "Point","coordinates": [-81.696135,41.462883]}},
{"type": "Feature","properties": {"NAME1":"LUTHERAN ORPHANS AND OLD FOLKS HOME AT NAPOLEON","NPI":"1033156914","STREET1":"1036 S PERRY ST","STREET2":"","CITY":"NAPOLEON","STATE":"OH","ZIP":"43545","CATEGORY":"NPPES"},"geometry": {"type": "Point","coordinates": [-84.118391,41.379597]}},
{"type": "Feature","properties": {"NAME1":"TRIHEALTH PHYSICIAN PRACTICES, LLC","NPI":"1881631513","STREET1":"100 ARROW SPRINGS BLVD","STREET2":"SUITE 2700","CITY":"LEBANON","STATE":"OH","ZIP":"45036","CATEGORY":"NPPES"},"geometry": {"type": "Point","coordinates": [-84.173507,39.429284]}},
{"type": "Feature","properties": {"NAME1":"COMMUNITY HOSPITALS AND WELLNESS CENTERS","NPI":"1457398893","STREET1":"909 E SNYDER AVE","STREET2":"","CITY":"MONTPELIER","STATE":"OH","ZIP":"43543","CATEGORY":"NPPES"},"geometry": {"type": "Point","coordinates": [-84.594049,41.589528]}},
{"type": "Feature","properties": {"NAME1":"WALGREEN CO.","NPI":"1356388698","STREET1":"9166 STATE ROUTE 43","STREET2":"","CITY":"STREETSBORO","STATE":"OH","ZIP":"44241","CATEGORY":"NPPES"},"geometry": {"type": "Point","coordinates": [-81.344991,41.240098]}},
{"type": "Feature","properties": {"NAME1":"HOSPICE PREFERRED CHOICE, INC.","NPI":"1174560429","STREET1":"2820 W MARKET ST","STREET2":"SUITE 110","CITY":"FAIRLAWN","STATE":"OH","ZIP":"44333","CATEGORY":"NPPES"},"geometry": {"type": "Point","coordinates": [-81.605071,41.125671]}},
{"type": "Feature","properties": {"NAME1":"METROHEALTH SYSTEM","NPI":"1699712075","STREET1":"4229 PEARL RD","STREET2":"MH SKILLED NRSG SERV@THE SENIOR HEALTH & WELLNESS CTR","CITY":"CLEVELAND","STATE":"OH","ZIP":"44109","CATEGORY":"NPPES"},"geometry": {"type": "Point","coordinates": [-81.705638,41.440031]}},
{"type": "Feature","properties": {"NAME1":"MEMORIAL HOSPITAL","NPI":"1720026743","STREET1":"430 S MAIN ST","STREET2":"","CITY":"CLYDE","STATE":"OH","ZIP":"43410","CATEGORY":"NPPES"},"geometry": {"type": "Point","coordinates": [-82.973632,41.30074]}},
{"type": "Feature","properties": {"NAME1":"DBA EAST MAIN STREET PHARMACY","NPI":"1457399131","STREET1":"1336 E MAIN ST","STREET2":"","CITY":"COLUMBUS","STATE":"OH","ZIP":"43205","CATEGORY":"NPPES"},"geometry": {"type": "Point","coordinates": [-82.963516,39.958643]}},
{"type": "Feature","properties": {"NAME1":"AMERICAN HEALTH NETWORK OF OHIO, LLC","NPI":"1841238508","STREET1":"60 WESTERVIEW DRIVE","STREET2":"","CITY":"WESTERVILLE","STATE":"OH","ZIP":"43081","CATEGORY":"NPPES"},"geometry": {"type": "Point","coordinates": [-82.946165,40.123137]}},
{"type": "Feature","properties": {"NAME1":"METROHEALTH SYSTEM","NPI":"1750329264","STREET1":"2816 E 116TH ST","STREET2":"","CITY":"CLEVELAND","STATE":"OH","ZIP":"44120","CATEGORY":"NPPES"},"geometry": {"type": "Point","coordinates": [-81.603258,41.482645]}},
{"type": "Feature","properties": {"NAME1":"COUNSELING CENTER OF WAYNE & HOLMES COUNTIES","NPI":"1215975685","STREET1":"2285 BENDEN DR","STREET2":"","CITY":"WOOSTER","STATE":"OH","ZIP":"44691","CATEGORY":"NPPES"},"geometry": {"type": "Point","coordinates": [-81.905465,40.822749]}},
{"type": "Feature","properties": {"NAME1":"UNIVERSAL NURSING SERVICE, INC.","NPI":"1700824141","STREET1":"402 E MARKET ST","STREET2":"","CITY":"AKRON","STATE":"OH","ZIP":"44304","CATEGORY":"NPPES"},"geometry": {"type": "Point","coordinates": [-81.505054,41.080298]}},
{"type": "Feature","properties": {"NAME1":"PARTNERS PHYSICIAN GROUP","NPI":"1841239274","STREET1":"224 W EXCHANGE ST","STREET2":"","CITY":"AKRON","STATE":"OH","ZIP":"44302","CATEGORY":"NPPES"},"geometry": {"type": "Point","coordinates": [-81.529208,41.07971]}},
{"type": "Feature","properties": {"NAME1":"LUTHERAN ORPHANS AND OLD FOLKS HOME AT TOLEDO","NPI":"1790724151","STREET1":"131 N WHEELING ST","STREET2":"","CITY":"TOLEDO","STATE":"OH","ZIP":"43605","CATEGORY":"NPPES"},"geometry": {"type": "Point","coordinates": [-83.48733,41.653853]}},
{"type": "Feature","properties": {"NAME1":"LUTHERAN ORPHANS AND OLD FOLKS HOME AT WOLF CREEK","NPI":"1427096056","STREET1":"2001 PERRYSBURG HOLLAND RD","STREET2":"","CITY":"HOLLAND","STATE":"OH","ZIP":"43528","CATEGORY":"NPPES"},"geometry": {"type": "Point","coordinates": [-83.6953,41.60529]}},
{"type": "Feature","properties": {"NAME1":"WALGREEN CO.","NPI":"1770522732","STREET1":"181 TAYLOR AVE","STREET2":"","CITY":"COLUMBUS","STATE":"OH","ZIP":"43203","CATEGORY":"NPPES"},"geometry": {"type": "Point","coordinates": [-82.962034,39.97062]}},
{"type": "Feature","properties": {"NAME1":"TRIHEALTH PHYSICIAN PRACTICES, LLC","NPI":"1669411534","STREET1":"3219 CLIFTON AVE","STREET2":"SUITE 100","CITY":"CINCINNATI","STATE":"OH","ZIP":"45220","CATEGORY":"NPPES"},"geometry": {"type": "Point","coordinates": [-84.519968,39.140509]}},
{"type": "Feature","properties": {"NAME1":"AMERICAN HEALTH NETWORK OF OHIO, LLC","NPI":"1245279744","STREET1":"85 COMMERCE PARK DR","STREET2":"","CITY":"WESTERVILLE","STATE":"OH","ZIP":"43082","CATEGORY":"NPPES"},"geometry": {"type": "Point","coordinates": [-82.926793,40.139161]}},
{"type": "Feature","properties": {"NAME1":"AMERICAN HEALTH NETWORK OF OHIO, LLC","NPI":"1336188861","STREET1":"3154 PARK ST","STREET2":"","CITY":"GROVE CITY","STATE":"OH","ZIP":"43123","CATEGORY":"NPPES"},"geometry": {"type": "Point","coordinates": [-83.087086,39.880305]}},
{"type": "Feature","properties": {"NAME1":"NURSEFINDERS, LLC","NPI":"1447290945","STREET1":"6525 BUSCH BLVD","STREET2":"SUITE 104","CITY":"COLUMBUS","STATE":"OH","ZIP":"43229","CATEGORY":"NPPES"},"geometry": {"type": "Point","coordinates": [-82.994138,40.098422]}},
{"type": "Feature","properties": {"NAME1":"OHIO LIVING HOLDINGS","NPI":"1881634939","STREET1":"2740 AIRPORT DR","STREET2":"SUITE 140","CITY":"COLUMBUS","STATE":"OH","ZIP":"43219","CATEGORY":"NPPES"},"geometry": {"type": "Point","coordinates": [-82.935027,39.996792]}},
{"type": "Feature","properties": {"NAME1":"TRIHEALTH PHYSICIAN PRACTICES, LLC","NPI":"1982644381","STREET1":"3000 HOSPITAL DR","STREET2":"SUITE 240","CITY":"BATAVIA","STATE":"OH","ZIP":"45103","CATEGORY":"NPPES"},"geometry": {"type": "Point","coordinates": [-84.146258,39.080305]}},
{"type": "Feature","properties": {"NAME1":"FAMILY MEDICINE CARE, LLC","NPI":"1447291950","STREET1":"2510 COMMONS BLVD","STREET2":"SUITE 220","CITY":"BEAVERCREEK","STATE":"OH","ZIP":"45431","CATEGORY":"NPPES"},"geometry": {"type": "Point","coordinates": [-84.058589,39.761734]}},
{"type": "Feature","properties": {"NAME1":"BERGER HOSPITAL","NPI":"1376584409","STREET1":"600 N PICKAWAY ST","STREET2":"","CITY":"CIRCLEVILLE","STATE":"OH","ZIP":"43113","CATEGORY":"NPPES"},"geometry": {"type": "Point","coordinates": [-82.937402,39.610964]}},
{"type": "Feature","properties": {"NAME1":"OHIOHEALTH BERGER HOSPITAL LLC","NPI":"1629019666","STREET1":"610 NORTHRIDGE ROAD","STREET2":"","CITY":"CIRCLEVILLE","STATE":"OH","ZIP":"43113","CATEGORY":"NPPES"},"geometry": {"type": "Point","coordinates": [-82.921541,39.620459]}},
{"type": "Feature","properties": {"NAME1":"GREATER CINCINNATI PERINATAL ASSOCIATES, LLC","NPI":"1679514855","STREET1":"234 GOODMAN ST","STREET2":"","CITY":"CINCINNATI","STATE":"OH","ZIP":"45219","CATEGORY":"NPPES"},"geometry": {"type": "Point","coordinates": [-84.503472,39.137365]}},
{"type": "Feature","properties": {"NAME1":"VISITING NURSE EQUIPMENT AND SUPPLIES INC","NPI":"1689615643","STREET1":"160 OPPORTUNITY PKWY","STREET2":"","CITY":"AKRON","STATE":"OH","ZIP":"44307","CATEGORY":"NPPES"},"geometry": {"type": "Point","coordinates": [-81.528904,41.074611]}},
{"type": "Feature","properties": {"NAME1":"OHIO HILLS HEALTH SERVICES","NPI":"1326089129","STREET1":"101 E MAIN ST","STREET2":"","CITY":"BARNESVILLE","STATE":"OH","ZIP":"43713","CATEGORY":"NPPES"},"geometry": {"type": "Point","coordinates": [-81.17634,39.987515]}},
{"type": "Feature","properties": {"NAME1":"OHIO HILLS HEALTH SERVICES","NPI":"1871534677","STREET1":"37984 AIRPORT RD","STREET2":"","CITY":"WOODSFIELD","STATE":"OH","ZIP":"43793","CATEGORY":"NPPES"},"geometry": {"type": "Point","coordinates": [-81.132438,39.765441]}},
{"type": "Feature","properties": {"NAME1":"LAKE HOSPITAL SYSTEM INC","NPI":"1720020274","STREET1":"36001 EUCLID AVE","STREET2":"STE B-16","CITY":"WILLOUGHBY","STATE":"OH","ZIP":"44094","CATEGORY":"NPPES"},"geometry": {"type": "Point","coordinates": [-81.43221,41.626691]}},
{"type": "Feature","properties": {"NAME1":"LAKE HOSPITAL SYSTEM INC","NPI":"1366484818","STREET1":"6990 LINDSAY DR","STREET2":"#3","CITY":"MENTOR","STATE":"OH","ZIP":"44060","CATEGORY":"NPPES"},"geometry": {"type": "Point","coordinates": [-81.341491,41.680966]}},
{"type": "Feature","properties": {"NAME1":"LAKE HOSPITAL SYSTEM INC","NPI":"1538101985","STREET1":"510 FIFTH AVENUE","STREET2":"","CITY":"CHARDON","STATE":"OH","ZIP":"44024","CATEGORY":"NPPES"},"geometry": {"type": "Point","coordinates": [-81.220155,41.586828]}},
{"type": "Feature","properties": {"NAME1":"TOWNSHIP OF WOOSTER TTEES","NPI":"1972545523","STREET1":"1917 MILLERSBURG RD","STREET2":"","CITY":"WOOSTER","STATE":"OH","ZIP":"44691","CATEGORY":"NPPES"},"geometry": {"type": "Point","coordinates": [-81.930432,40.776307]}},
{"type": "Feature","properties": {"NAME1":"METROHEALTH SYSTEM","NPI":"1053353896","STREET1":"2500 METROHEALTH DR","STREET2":"","CITY":"CLEVELAND","STATE":"OH","ZIP":"44109","CATEGORY":"NPPES"},"geometry": {"type": "Point","coordinates": [-81.696135,41.462883]}},
{"type": "Feature","properties": {"NAME1":"METROHEALTH SYSTEM","NPI":"1346282324","STREET1":"2500 METROHEALTH DR","STREET2":"","CITY":"CLEVELAND","STATE":"OH","ZIP":"44109","CATEGORY":"NPPES"},"geometry": {"type": "Point","coordinates": [-81.696135,41.462883]}},
{"type": "Feature","properties": {"NAME1":"METROHEALTH SYSTEM","NPI":"1609818681","STREET1":"2500 METROHEALTH DR","STREET2":"","CITY":"CLEVELAND","STATE":"OH","ZIP":"44109","CATEGORY":"NPPES"},"geometry": {"type": "Point","coordinates": [-81.696135,41.462883]}},
{"type": "Feature","properties": {"NAME1":"METROHEALTH SYSTEM","NPI":"1700828852","STREET1":"2500 METROHEALTH DR","STREET2":"","CITY":"CLEVELAND","STATE":"OH","ZIP":"44109","CATEGORY":"NPPES"},"geometry": {"type": "Point","coordinates": [-81.696135,41.462883]}},
{"type": "Feature","properties": {"NAME1":"METROHEALTH SYSTEM","NPI":"1083656045","STREET1":"2500 METROHEALTH DR","STREET2":"","CITY":"CLEVELAND","STATE":"OH","ZIP":"44109","CATEGORY":"NPPES"},"geometry": {"type": "Point","coordinates": [-81.696135,41.462883]}},
{"type": "Feature","properties": {"NAME1":"VISITING NURSE SERVICE, INC.","NPI":"1750323093","STREET1":"3358 RIDGEWOOD RD","STREET2":"","CITY":"FAIRLAWN","STATE":"OH","ZIP":"44333","CATEGORY":"NPPES"},"geometry": {"type": "Point","coordinates": [-81.634118,41.110056]}},
{"type": "Feature","properties": {"NAME1":"METROHEALTH SYSTEM","NPI":"1083656847","STREET1":"3525 SCRANTON RD","STREET2":"","CITY":"CLEVELAND","STATE":"OH","ZIP":"44109","CATEGORY":"NPPES"},"geometry": {"type": "Point","coordinates": [-81.699049,41.458693]}},
{"type": "Feature","properties": {"NAME1":"THERAPY SUPPORT, INC.","NPI":"1841233467","STREET1":"10324 BRECKSVILLE RD","STREET2":"","CITY":"BRECKSVILLE","STATE":"OH","ZIP":"44141","CATEGORY":"NPPES"},"geometry": {"type": "Point","coordinates": [-81.628094,41.281208]}},
{"type": "Feature","properties": {"NAME1":"MEMORIAL HOSPITAL","NPI":"1184667735","STREET1":"430 S MAIN ST","STREET2":"","CITY":"CLYDE","STATE":"OH","ZIP":"43410","CATEGORY":"NPPES"},"geometry": {"type": "Point","coordinates": [-82.973632,41.30074]}},
{"type": "Feature","properties": {"NAME1":"THERAPY SUPPORT INC.","NPI":"1316980949","STREET1":"4351 CREEK RD","STREET2":"","CITY":"CINCINNATI","STATE":"OH","ZIP":"45241","CATEGORY":"NPPES"},"geometry": {"type": "Point","coordinates": [-84.389664,39.259509]}},
{"type": "Feature","properties": {"NAME1":"THERAPY SUPPORT, INC.","NPI":"1417990102","STREET1":"6763 COMMERCE COURT DR","STREET2":"","CITY":"BLACKLICK","STATE":"OH","ZIP":"43004","CATEGORY":"NPPES"},"geometry": {"type": "Point","coordinates": [-82.819457,39.988533]}},
{"type": "Feature","properties": {"NAME1":"COMMUNITY HOSPITALS AND WELLNESS CENTERS","NPI":"1386687218","STREET1":"909 E SNYDER AVE","STREET2":"","CITY":"MONTPELIER","STATE":"OH","ZIP":"43543","CATEGORY":"NPPES"},"geometry": {"type": "Point","coordinates": [-84.594049,41.589528]}},
{"type": "Feature","properties": {"NAME1":"TRIHEALTH PHYSICIAN PRACTICES LLC","NPI":"1184667339","STREET1":"4422 CARVER WOODS DR","STREET2":"SUITE 100","CITY":"CINCINNATI","STATE":"OH","ZIP":"45242","CATEGORY":"NPPES"},"geometry": {"type": "Point","coordinates": [-84.385317,39.244543]}},
{"type": "Feature","properties": {"NAME1":"UNIVERSITY OF CINCINNATI MEDICAL CENTER, LLC","NPI":"1689618423","STREET1":"3200 BURNET AVENUE","STREET2":"","CITY":"CINCINNATI","STATE":"OH","ZIP":"45229","CATEGORY":"NPPES"},"geometry": {"type": "Point","coordinates": [-84.500209,39.136708]}},
{"type": "Feature","properties": {"NAME1":"LAKE HOSPITAL SYSTEM INC","NPI":"1013951920","STREET1":"9485 MENTOR AVE","STREET2":"101","CITY":"MENTOR","STATE":"OH","ZIP":"44060","CATEGORY":"NPPES"},"geometry": {"type": "Point","coordinates": [-81.299483,41.6821]}},
{"type": "Feature","properties": {"NAME1":"LAKE HOSPITAL SYSTEM INC","NPI":"1699719518","STREET1":"35040 CHARDON RD","STREET2":"BLDG VII #205","CITY":"WILLOUGHBY HILLS","STATE":"OH","ZIP":"44094","CATEGORY":"NPPES"},"geometry": {"type": "Point","coordinates": [-81.437734,41.585736]}},
{"type": "Feature","properties": {"NAME1":"LAKE HOSPITAL SYSTEM INC","NPI":"1508800426","STREET1":"36060 EUCLID AVE","STREET2":"SUITE 204","CITY":"WILLOUGHBY","STATE":"OH","ZIP":"44094","CATEGORY":"NPPES"},"geometry": {"type": "Point","coordinates": [-81.431712,41.625047]}},
{"type": "Feature","properties": {"NAME1":"LAKE HOSPITAL SYSTEM INC","NPI":"1417991332","STREET1":"36100 EUCLID AVE","STREET2":"#240","CITY":"WILLOUGHBY","STATE":"OH","ZIP":"44094","CATEGORY":"NPPES"},"geometry": {"type": "Point","coordinates": [-81.430944,41.626711]}},
{"type": "Feature","properties": {"NAME1":"LAKE HOSPITAL SYSTEM INC","NPI":"1932143856","STREET1":"6270 N RIDGE RD","STREET2":"","CITY":"MADISON","STATE":"OH","ZIP":"44057","CATEGORY":"NPPES"},"geometry": {"type": "Point","coordinates": [-81.064854,41.802865]}},
{"type": "Feature","properties": {"NAME1":"LAKE HOSPITAL SYSTEM INC","NPI":"1841234762","STREET1":"36001 EUCLID AVE","STREET2":"SUITE C-7","CITY":"WILLOUGHBY","STATE":"OH","ZIP":"44094","CATEGORY":"NPPES"},"geometry": {"type": "Point","coordinates": [-81.43221,41.626691]}},
{"type": "Feature","properties": {"NAME1":"MERCY HEALTH-REGIONAL MEDICAL CENTER LLC","NPI":"1245274950","STREET1":"3700 KOLBE RD","STREET2":"","CITY":"LORAIN","STATE":"OH","ZIP":"44053","CATEGORY":"NPPES"},"geometry": {"type": "Point","coordinates": [-82.237617,41.436893]}},